country,short_name,names,id,latitude,longitude,gtng_region,glims_id,rgi50_ids,rgi60_ids,rgi70_ids,wgi_id,parent_glacier_id,references,remarks
PK,AGHOST BAR GLACIER,,16218,36.628399,73.107903,14_south_asia_west,,RGI50-14.02261,RGI60-14.02261,,,,,Information derived from RGI5.0. | GLIMS_ID: G073108E36628N (invalid)
PK,ALING,,1630,35.470001,76.220001,14_south_asia_west,,,,,,,,"INFORMATION REFERS ESPECIALLY TO TRIBUTARY; VERY POOR TOPOGRAPHICAL MAP. Entry from former field AUTHORS: ""K. HEWITT"""
PK,BALOCHO GLACIER,,16434,36.004799,75.173103,14_south_asia_west,,RGI50-14.04690,RGI60-14.04690,,,,,Information derived from RGI5.0. | GLIMS_ID: G075173E36005N (invalid)
PK,BALTAR,,9314,36.458302,74.464302,14_south_asia_west,,RGI50-14.02653,,,,,,Glacier info from Sevestre & Benn (2015) | GLIMS_ID: G074464E36458N (invalid) from Sevestre & Benn (2015)
PK,BALT BARE BALTBAR,,9322,36.338902,74.934898,14_south_asia_west,,RGI50-14.03837,,,,,,Glacier info from Sevestre & Benn (2015) | GLIMS_ID: G074935E36339N (invalid) from Sevestre & Benn (2015)
PK,BALTORO,,991,35.75,76.330002,14_south_asia_west,,RGI50-14.06794,,,,,,"INFORMATION REFERS TO LILIGO TRIBUTARY; Entry from former field AUTHORS: ""K. HEWITT, J. BARLOW"" | WGI_ID: PK5Q15012014 (invalid)"
PK,BALTORO GLACIER,,16675,35.7416,76.404701,14_south_asia_west,,RGI50-14.06794,RGI60-14.06794,,,,,Information derived from RGI5.0. | GLIMS_ID: G076405E35742N (invalid)
PK,BARPU,,989,36.119999,74.800003,14_south_asia_west,,RGI50-14.04508,,,,,,WGI_ID: PK5Q14201006 (invalid)
PK,BARPU GLACIER,,15933,36.067299,74.817101,14_south_asia_west,,RGI50-14.00032,RGI60-14.00032,,,,,Information derived from RGI5.0. | GLIMS_ID: G074817E36067N (invalid)
PK,BATURA,,990,36.57,74.580002,14_south_asia_west,,RGI50-14.05476,,,,,,WGI_ID: PK5Q14200002 (invalid)
PK,BAZHIN,,978,35.225941,74.637306,14_south_asia_west,,RGI50-14.20029,RGI60-14.20029,,,,,GLIMS_ID: G074637E35226N (invalid) | WGI_ID: PK5Q13021504 (invalid)
PK,BIAFO GLACIER,,15931,36.006401,75.593201,14_south_asia_west,,RGI50-14.00005,RGI60-14.00005,,,,,Information derived from RGI5.0. | GLIMS_ID: G075593E36006N (invalid)
PK,BIAFO GYANG,,988,35.919998,75.720001,14_south_asia_west,,RGI50-14.00005,,,,,,WGI_ID: PK5Q15012007 (invalid)
PK,BILAFOND GLACIER,,16578,35.209801,76.935997,14_south_asia_west,,RGI50-14.05872,RGI60-14.05872,,,,,Information derived from RGI5.0. | GLIMS_ID: G076936E35210N (invalid)
PK,BORUM BAR GLACIER,,16166,36.693199,73.162003,14_south_asia_west,,RGI50-14.01847,RGI60-14.01847,,,,,Information derived from RGI5.0. | GLIMS_ID: G073162E36693N (invalid)
PK,BRALDU,,9341,36.0396,75.779503,14_south_asia_west,G075780E36040N,RGI50-14.04411,,,,,,Glacier info from Sevestre & Benn (2015) | GLIMS_ID: Sevestre & Benn (2015)
PK,BRALDU GLACIER,,16408,36.0396,75.779503,14_south_asia_west,G075780E36040N,RGI50-14.04411,RGI60-14.04411,,,,,Information derived from RGI5.0.
PK,BUALTAR,,987,36.119999,74.800003,14_south_asia_west,,RGI50-14.04508,,,,,,WGI_ID: PK5Q14201007 (invalid)
PK,BUALTAR GLACIER,,16411,36.096401,74.6968,14_south_asia_west,,RGI50-14.04473,RGI60-14.04473,,,,,Information derived from RGI5.0. | GLIMS_ID: G074697E36096N (invalid)
PK,BULDAR,,984,35.380001,74.68,14_south_asia_west,,,,,,,,WGI_ID: PK5Q13003207 (invalid)
PK,CHAGARAN,,9374,35.7416,76.404701,14_south_asia_west,,RGI50-14.06794,,,,,,Glacier info from Sevestre & Benn (2015) | GLIMS_ID: G076405E35742N (invalid) from Sevestre & Benn (2015)
PK,CHHATEBOI GLACIER,,16085,36.779499,73.887802,14_south_asia_west,,RGI50-14.01226,RGI60-14.01226,,,,,Information derived from RGI5.0. | GLIMS_ID: G073888E36780N (invalid)
PK,CHIANTAR,,1001,36.77,73.68,14_south_asia_west,,,,,,,,WGI_ID: PK5Q13202004 (invalid)
PK,CHING KANG WEST,,9350,35.480499,75.9869,14_south_asia_west,,RGI50-14.07309,,,,,,Glacier info from Sevestre & Benn (2015) | GLIMS_ID: G075987E35481N (invalid) from Sevestre & Benn (2015)
PK,CHIRING,,9344,35.8475,75.958603,14_south_asia_west,,RGI50-14.04668,,,,,,Glacier info from Sevestre & Benn (2015) | GLIMS_ID: G075959E35848N (invalid) from Sevestre & Benn (2015)
PK,CHLLINJI GLACIER,,16112,36.761398,74.058899,14_south_asia_west,,RGI50-14.01454,RGI60-14.01454,,,,,Information derived from RGI5.0. | GLIMS_ID: G074059E36761N (invalid)
PK,CHOGOLISA GLACIER,,16580,35.432301,76.468803,14_south_asia_west,,RGI50-14.05916,RGI60-14.05916,,,,,Information derived from RGI5.0. | GLIMS_ID: G076469E35432N (invalid)
PK,CHOGO LUNGMA,,972,35.8737,75.2177,14_south_asia_west,,RGI50-14.04638,RGI60-14.04638,,,,,Correction of LAT/LON during integration of Hugonnet et al. (2021): correct to Centroid | GLIMS_ID: G075218E35874N (invalid) | WGI_ID: PK5Q13051001 (invalid)
PK,CHUNGPAR-TASH.,,985,35.276973,74.688517,14_south_asia_west,,RGI50-14.20030,RGI60-14.20030,,,,,Correction of LAT/LON during integration of Hugonnet et al. (2021): Point out of Poly - corrected by area | GLIMS_ID: G074689E35277N (invalid) | WGI_ID: PK5Q13021501 (invalid)
PK,DADARIL GLACIER,,17748,35.852276,72.646706,14_south_asia_west,,RGI50-14.20880,RGI60-14.20880,,,,,Information derived from RGI5.0. | GLIMS_ID: G072647E35852N (invalid)
PK,DIAMIR,,983,35.27,74.449997,14_south_asia_west,,,,,,,,WGI_ID: PK5Q13027701 (invalid)
PK,DODHAR GLACIER,,17693,35.100479,74.599815,14_south_asia_west,,RGI50-14.19878,RGI60-14.19878,,,,,Information derived from RGI5.0. | GLIMS_ID: G074600E35100N (invalid)
PK,DONG DONG GLACIER,,17105,35.3894,76.811996,14_south_asia_west,,RGI50-14.09896,RGI60-14.09896,,,,,Information derived from RGI5.0. | GLIMS_ID: G076812E35389N (invalid)
PK,DRENMANG,,9345,35.8475,75.958603,14_south_asia_west,,RGI50-14.04668,,,,,,Glacier info from Sevestre & Benn (2015) | GLIMS_ID: G075959E35848N (invalid) from Sevestre & Benn (2015)
PK,DRENMANG EAST,,9346,35.8475,75.958603,14_south_asia_west,,RGI50-14.04668,,,,,,Glacier info from Sevestre & Benn (2015) | GLIMS_ID: G075959E35848N (invalid) from Sevestre & Benn (2015)
PK,EAST HUCHO ALCHO GLACIER,,16439,35.9916,75.377403,14_south_asia_west,,RGI50-14.04706,RGI60-14.04706,,,,,Information derived from RGI5.0. | GLIMS_ID: G075377E35992N (invalid)
PK,FERIOLE 2ND SOUTH OR SHINGCHUKPI,,9352,35.853401,76.049301,14_south_asia_west,G076049E35853N,RGI50-14.05174,,,,,,Glacier info from Sevestre & Benn (2015) | GLIMS_ID: Sevestre & Benn (2015)
PK,FIRST FERIOLE,,9351,35.8223,76.035698,14_south_asia_west,,RGI50-14.06713,,,,,,Glacier info from Sevestre & Benn (2015) | GLIMS_ID: G076036E35822N (invalid) from Sevestre & Benn (2015)
PK,GARUMBAR,,9327,36.043499,75.003899,14_south_asia_west,,RGI50-14.04531,,,,,,Glacier info from Sevestre & Benn (2015) | GLIMS_ID: G075004E36044N (invalid) from Sevestre & Benn (2015)
PK,GHANDOGORO GLACIER,,17111,35.586498,76.360497,14_south_asia_west,,RGI50-14.09952,RGI60-14.09952,,,,,Information derived from RGI5.0. | GLIMS_ID: G076361E35587N (invalid)
PK,GHARESA GLACIER,,16374,36.245499,74.989502,14_south_asia_west,,RGI50-14.04068,RGI60-14.04068,,,,,Information derived from RGI5.0. | GLIMS_ID: G074990E36246N (invalid)
PK,GHASHO BAR GLACIER,,16303,36.452301,72.994003,14_south_asia_west,,RGI50-14.03061,RGI60-14.03061,,,,,Information derived from RGI5.0. | GLIMS_ID: G072994E36452N (invalid)
PK,GHUGHUEL GLACIER,,17678,35.080109,74.536751,14_south_asia_west,,RGI50-14.19416,RGI60-14.19416,,,,,Information derived from RGI5.0. | GLIMS_ID: G074537E35080N (invalid)
PK,GHULKIN,,996,36.450001,74.580002,14_south_asia_west,,RGI50-14.03017,RGI60-14.03017,,,,,GLIMS_ID: G074506E36437N (invalid) | WGI_ID: PK5Q14200004 (invalid)
PK,GHULKIN GLACIER,,16317,36.425999,74.783302,14_south_asia_west,,RGI50-14.03250,RGI60-14.03250,,,,,Information derived from RGI5.0. | GLIMS_ID: G074783E36426N (invalid)
PK,GLACIER 3,,979,35.419998,74.730003,14_south_asia_west,,,,,,,,WGI_ID: PK5Q13020504 (invalid)
PK,GONDOKORO,,9373,35.586498,76.360497,14_south_asia_west,,RGI50-14.09952,,,,,,Glacier info from Sevestre & Benn (2015) | GLIMS_ID: G076361E35587N (invalid) from Sevestre & Benn (2015)
PK,GORBILA GLACIER,,17879,35.77182,72.40007,14_south_asia_west,,RGI50-14.23358,RGI60-14.23358,,,,,Information derived from RGI5.0. | GLIMS_ID: G072400E35772N (invalid)
PK,GUL KHWAJA ULWIN GLACIER,,16026,36.9646,74.8526,14_south_asia_west,,RGI50-14.00796,RGI60-14.00796,,,,,Information derived from RGI5.0. | GLIMS_ID: G074853E36965N (invalid)
PK,GULMIT,,997,36.380001,74.800003,14_south_asia_west,,,,,,,,WGI_ID: PK5Q14200005 (invalid)
PK,GYONG GLACIER,,16827,35.055698,76.992798,14_south_asia_west,,RGI50-14.08184,RGI60-14.08184,,,,,Information derived from RGI5.0. | GLIMS_ID: G076993E35056N (invalid) | WGI_ID: IN5Q150D0084 (invalid)
PK,HAIZ,,25641,36.6763,73.8424,14_south_asia_west,,,RGI60-14.01941,,,,,Info derived from RGI. | GLIMS_ID: G073842E36676N (invalid)
PK,HANGE,,986,35.220001,74.599998,14_south_asia_west,,RGI50-14.20025,,,,,,WGI_ID: PK5Q13002902 (invalid)
PK,HASANABAD,,998,36.43,74.529999,14_south_asia_west,,,,,,,,WGI_ID: PK5Q14200007 (invalid)
PK,HASSANABAD,,9316,36.437099,74.619003,14_south_asia_west,,RGI50-14.05446,,,,,,Glacier info from Sevestre & Benn (2015) | GLIMS_ID: G074619E36437N (invalid) from Sevestre & Benn (2015)
PK,HINACNA GLACIER,,16420,36.116199,74.581802,14_south_asia_west,,RGI50-14.04585,RGI60-14.04585,,,,,Information derived from RGI5.0. | GLIMS_ID: G074582E36116N (invalid)
PK,HIND HAINABRAKK,,9375,35.7416,76.404701,14_south_asia_west,,RGI50-14.06794,,,,,,Glacier info from Sevestre & Benn (2015) | GLIMS_ID: G076405E35742N (invalid) from Sevestre & Benn (2015)
PK,HISPAR,,992,36.150002,75.220001,14_south_asia_west,,RGI50-14.04477,,,,,,WGI_ID: PK5Q14201003 (invalid)
PK,HISPAR,,9329,36.055,75.280998,14_south_asia_west,,RGI50-14.04477,,,,,,Glacier info from Sevestre & Benn (2015) | GLIMS_ID: G075281E36055N (invalid) from Sevestre & Benn (2015)
PK,HISPAR GLACIER,,16412,36.055,75.280998,14_south_asia_west,,RGI50-14.04477,RGI60-14.04477,,,,,Information derived from RGI5.0. | GLIMS_ID: G075281E36055N (invalid)
PK,HOPAR,,9319,36.096401,74.6968,14_south_asia_west,,RGI50-14.04473,,,,,,Glacier info from Sevestre & Benn (2015) | GLIMS_ID: G074697E36096N (invalid) from Sevestre & Benn (2015)
PK,KAPEL (BUALTAR),,9320,36.096401,74.6968,14_south_asia_west,,RGI50-14.04473,,,,,,Glacier info from Sevestre & Benn (2015) | GLIMS_ID: G074697E36096N (invalid) from Sevestre & Benn (2015)
PK,KARAMBAR,,1002,36.615898,74.223801,14_south_asia_west,,RGI50-14.02192,RGI60-14.02192,,,,,"7TH RECORDED SURGE; Entry from former field AUTHORS: ""K. HEWITT"" | GLIMS_ID: G074224E36616N (invalid) | WGI_ID: PK5Q14121016 (invalid)"
PK,KERUM BAR GLACIER,,16210,36.611801,73.225998,14_south_asia_west,,RGI50-14.02188,RGI60-14.02188,,,,,Information derived from RGI5.0. | GLIMS_ID: G073226E36612N (invalid)
PK,KHUNJERAB GLACIER,,16071,36.891701,75.386703,14_south_asia_west,,RGI50-14.01145,RGI60-14.01145,,,,,Information derived from RGI5.0. | GLIMS_ID: G075387E36892N (invalid)
PK,KHURDOPIN,,1004,36.330002,75.5,14_south_asia_west,,,,,,,,WGI_ID: PK5Q14202004 (invalid)
PK,KHURDOPIN,,9335,36.191502,75.438103,14_south_asia_west,,RGI50-14.04404,,,,,,Glacier info from Sevestre & Benn (2015) | GLIMS_ID: G075438E36192N (invalid) from Sevestre & Benn (2015)
PK,KHURDOPIN GLACIER,,16407,36.191502,75.438103,14_south_asia_west,,RGI50-14.04404,RGI60-14.04404,,,,,Information derived from RGI5.0. | GLIMS_ID: G075438E36192N (invalid)
PK,KIT-KE-JERAV,,9313,36.679001,74.403397,14_south_asia_west,,RGI50-14.01964,,,,,,Glacier info from Sevestre & Benn (2015). Also called Kuk-ke-jerav or Wyenn glacier. | GLIMS_ID: G074403E36679N (invalid) from Sevestre & Benn (2015)
PK,KLEINE LORANG,,982,35.400002,74.75,14_south_asia_west,,,,,,,,WGI_ID: PK5Q13020601 (invalid)
PK,KONDUS GLACIER,,16720,35.436798,76.664497,14_south_asia_west,,RGI50-14.07239,RGI60-14.07239,,,,,Information derived from RGI5.0. | GLIMS_ID: G076665E35437N (invalid)
PK,KOZ YAZ GLACIER,,16119,36.737099,74.132004,14_south_asia_west,,RGI50-14.01489,RGI60-14.01489,,,,,Information derived from RGI5.0. | GLIMS_ID: G074132E36737N (invalid)
PK,KUKKI JERAB GLACIER,,16183,36.679001,74.403397,14_south_asia_west,,RGI50-14.01964,RGI60-14.01964,,,,,Information derived from RGI5.0. | GLIMS_ID: G074403E36679N (invalid)
PK,KUKUAR,,9311,36.4902,74.2407,14_south_asia_west,,RGI50-14.02849,,,,,,Glacier info from Sevestre & Benn (2015) | GLIMS_ID: G074241E36490N (invalid) from Sevestre & Benn (2015)
PK,KUNYANG,,9330,36.055,75.280998,14_south_asia_west,,RGI50-14.04477,,,,,,Glacier info from Sevestre & Benn (2015) | GLIMS_ID: G075281E36055N (invalid) from Sevestre & Benn (2015)
PK,KUTIAH KUTIUH,,9324,35.804501,74.938004,14_south_asia_west,,RGI50-14.04945,,,,,,Glacier info from Sevestre & Benn (2015) | GLIMS_ID: G074938E35805N (invalid) from Sevestre & Benn (2015)
PK,LILIGO,,9376,35.7416,76.404701,14_south_asia_west,,RGI50-14.06794,,,,,,Glacier info from Sevestre & Benn (2015) | GLIMS_ID: G076405E35742N (invalid) from Sevestre & Benn (2015)
PK,LITTLE SKAMRI,,9347,35.8475,75.958603,14_south_asia_west,,RGI50-14.04668,,,,,,Glacier info from Sevestre & Benn (2015) | GLIMS_ID: G075959E35848N (invalid) from Sevestre & Benn (2015)
PK,LORANG,,981,35.369999,74.75,14_south_asia_west,,RGI50-14.19120,,,,,,WGI_ID: PK5Q13020602 (invalid)
PK,LUPGHAR YAZ GLACIER,,16357,36.3615,74.999603,14_south_asia_west,,RGI50-14.03869,RGI60-14.03869,,,,,Information derived from RGI5.0. | GLIMS_ID: G075000E36362N (invalid)
PK,LUPSHAR YAZ,,1008,36.450001,75.050003,14_south_asia_west,,,,,,,,WGI_ID: PK5Q14202008 (invalid)
PK,MAEDAN,,9348,35.8475,75.958603,14_south_asia_west,,RGI50-14.04668,,,,,,"Glacier info from Sevestre & Benn (2015). South Chiring, Shirchapbi, Biaho. | GLIMS_ID: G075959E35848N (invalid) from Sevestre & Benn (2015)"
PK,MALUNGUTTI,,1006,36.25,75.25,14_south_asia_west,,RGI50-14.03334,,,,,,WGI_ID: PK5Q14202006 (invalid)
PK,MANI,,9323,35.856998,74.935402,14_south_asia_west,,RGI50-14.04807,,,,,,Glacier info from Sevestre & Benn (2015) | GLIMS_ID: G074935E35857N (invalid) from Sevestre & Benn (2015)
PK,MARPAH GANS,,9328,35.782101,75.194099,14_south_asia_west,,RGI50-14.04933,,,,,,Glacier info from Sevestre & Benn (2015) | GLIMS_ID: G075194E35782N (invalid) from Sevestre & Benn (2015)
PK,MASHERBRUM,,9372,35.553501,76.318703,14_south_asia_west,,RGI50-14.07342,,,,,,Glacier info from Sevestre & Benn (2015) | GLIMS_ID: G076319E35554N (invalid) from Sevestre & Benn (2015)
PK,MASHERBRUM GLACIER,,16727,35.553501,76.318703,14_south_asia_west,,RGI50-14.07342,RGI60-14.07342,,,,,Information derived from RGI5.0. | GLIMS_ID: G076319E35554N (invalid)
PK,MINAPIN,,994,36.18,74.580002,14_south_asia_west,,RGI50-14.04452,RGI60-14.04452,,,,,GLIMS_ID: G074594E36164N (invalid) | WGI_ID: PK5Q14200015 (invalid)
PK,MOMHIL,,1007,36.080002,75.419998,14_south_asia_west,,RGI50-14.04477,,,,,,WGI_ID: PK5Q14202007 (invalid)
PK,MOMHIL GLACIER,,16329,36.323898,75.144798,14_south_asia_west,,RGI50-14.03405,RGI60-14.03405,,,,,Information derived from RGI5.0. | GLIMS_ID: G075145E36324N (invalid)
PK,MULUNGUTTI GLACIER,,16361,36.3382,75.205498,14_south_asia_west,,RGI50-14.03893,RGI60-14.03893,,,,,Information derived from RGI5.0. | GLIMS_ID: G075206E36338N (invalid)
PK,NANG BROK,,9339,35.622898,75.709,14_south_asia_west,,RGI50-14.07177,,,,,,Glacier info from Sevestre & Benn (2015) | GLIMS_ID: G075709E35623N (invalid) from Sevestre & Benn (2015)
PK,OCHHONO GLACIER,,17891,35.930023,72.636131,14_south_asia_west,,RGI50-14.23441,RGI60-14.23441,,,,,Information derived from RGI5.0. | GLIMS_ID: G072636E35930N (invalid)
PK,PANMAH,,1000,36.0,75.919998,14_south_asia_west,,RGI50-14.04668,,,,,,"SHIPTON 1939 EXPEDITION MAP USED; Entry from former field AUTHORS: ""J. BARLOW, K. HEWITT"" | WGI_ID: PK5Q15012008 (invalid)"
PK,PANMAH GLACIER,,16432,35.8475,75.958603,14_south_asia_west,,RGI50-14.04668,RGI60-14.04668,,,,,Information derived from RGI5.0. | GLIMS_ID: G075959E35848N (invalid)
PK,PARPIK GLACIER,,16064,36.8867,75.356201,14_south_asia_west,,RGI50-14.01070,RGI60-14.01070,,,,,Information derived from RGI5.0. | GLIMS_ID: G075356E36887N (invalid)
PK,PASU,,993,36.450001,74.75,14_south_asia_west,,RGI50-14.05432,,,,,,WGI_ID: PK5Q14200003 (invalid)
PK,PASU GLACIER,,16307,36.467999,74.714203,14_south_asia_west,,RGI50-14.03123,RGI60-14.03123,,,,,Information derived from RGI5.0. | GLIMS_ID: G074714E36468N (invalid)
PK,PATRO,,980,35.299999,74.5,14_south_asia_west,,,,,,,,WGI_ID: PK5Q13002805 (invalid)
PK,PEKHIN GLACIER,,16173,36.689301,73.944504,14_south_asia_west,,RGI50-14.01893,RGI60-14.01893,,,,,Information derived from RGI5.0. | GLIMS_ID: G073945E36689N (invalid)
PK,PISAN,,995,36.049999,74.519997,14_south_asia_west,,,,,,,,WGI_ID: PK5Q14200014 (invalid)
PK,PISAN,,9315,36.173302,74.5112,14_south_asia_west,,RGI50-14.04178,,,,,,Glacier info from Sevestre & Benn (2015) | GLIMS_ID: G074511E36173N (invalid) from Sevestre & Benn (2015)
PK,PISAN GLACIER,,16385,36.173302,74.5112,14_south_asia_west,,RGI50-14.04178,RGI60-14.04178,,,,,Information derived from RGI5.0. | GLIMS_ID: G074511E36173N (invalid)
PK,PK1,,975,35.200001,74.580002,14_south_asia_west,,,,,,,,WGI_ID: PK5Q13021507 (invalid)
PK,PUMARI CHRISH (PUMARIKISH),,9331,36.055,75.280998,14_south_asia_west,,RGI50-14.04477,,,,,,Glacier info from Sevestre & Benn (2015) | GLIMS_ID: G075281E36055N (invalid) from Sevestre & Benn (2015)
PK,QALANDAR GUM GLACIER,,16538,36.677101,73.084297,14_south_asia_west,,RGI50-14.05560,RGI60-14.05560,,,,,Information derived from RGI5.0. | GLIMS_ID: G073084E36677N (invalid)
PK,RAIKOT,,3665,35.314999,74.614998,14_south_asia_west,,RGI50-14.20156,RGI60-14.20156,,,,,GLIMS_ID: G074623E35298N (invalid)
PK,RGI60-14.00001,,106156,35.7639,75.9105,14_south_asia_west,,,RGI60-14.00001,,,,,
PK,RGI60-14.00002,,106157,35.7539,75.9186,14_south_asia_west,,,RGI60-14.00002,,,,,
PK,RGI60-14.00004,,106158,35.7722,75.1278,14_south_asia_west,,,RGI60-14.00004,,,,,
PK,RGI60-14.00006,,106159,36.0154,75.6874,14_south_asia_west,,,RGI60-14.00006,,,,,
PK,RGI60-14.00008,,106160,35.9667,75.6421,14_south_asia_west,,,RGI60-14.00008,,,,,
PK,RGI60-14.00009,,106161,35.9381,75.6866,14_south_asia_west,,,RGI60-14.00009,,,,,
PK,RGI60-14.00010,,106162,35.9031,75.7223,14_south_asia_west,,,RGI60-14.00010,,,,,
PK,RGI60-14.00011,,106163,35.8996,75.7629,14_south_asia_west,,,RGI60-14.00011,,,,,
PK,RGI60-14.00012,,106164,35.8739,75.8415,14_south_asia_west,,,RGI60-14.00012,,,,,
PK,RGI60-14.00013,,106165,35.7992,75.7631,14_south_asia_west,,,RGI60-14.00013,,,,,
PK,RGI60-14.00015,,106166,35.7919,75.7445,14_south_asia_west,,,RGI60-14.00015,,,,,
PK,RGI60-14.00016,,106167,35.7856,75.7659,14_south_asia_west,,,RGI60-14.00016,,,,,
PK,RGI60-14.00017,,106168,35.7408,75.8267,14_south_asia_west,,,RGI60-14.00017,,,,,
PK,RGI60-14.00020,,106169,35.9205,74.6246,14_south_asia_west,,,RGI60-14.00020,,,,,
PK,RGI60-14.00021,,106170,35.9246,74.6298,14_south_asia_west,,,RGI60-14.00021,,,,,
PK,RGI60-14.00024,,106171,36.0016,74.7496,14_south_asia_west,,,RGI60-14.00024,,,,,
PK,RGI60-14.00025,,106172,35.9948,74.7466,14_south_asia_west,,,RGI60-14.00025,,,,,
PK,RGI60-14.00026,,106173,35.9895,74.7441,14_south_asia_west,,,RGI60-14.00026,,,,,
PK,RGI60-14.00027,,106174,36.0073,74.75,14_south_asia_west,,,RGI60-14.00027,,,,,
PK,RGI60-14.00028,,106175,36.0137,74.6949,14_south_asia_west,,,RGI60-14.00028,,,,,
PK,RGI60-14.00029,,106176,36.0616,74.4285,14_south_asia_west,,,RGI60-14.00029,,,,,
PK,RGI60-14.00030,,106177,36.0943,74.9443,14_south_asia_west,,,RGI60-14.00030,,,,,
PK,RGI60-14.00033,,106178,36.1076,74.8178,14_south_asia_west,,,RGI60-14.00033,,,,,
PK,RGI60-14.00034,,106179,36.0716,74.9526,14_south_asia_west,,,RGI60-14.00034,,,,,
PK,RGI60-14.00035,,106180,36.0507,74.8685,14_south_asia_west,,,RGI60-14.00035,,,,,
PK,RGI60-14.00037,,106181,36.1451,74.4361,14_south_asia_west,,,RGI60-14.00037,,,,,
PK,RGI60-14.00038,,106182,36.2116,72.5513,14_south_asia_west,,,RGI60-14.00038,,,,,
PK,RGI60-14.00042,,106183,36.3359,74.0381,14_south_asia_west,,,RGI60-14.00042,,,,,
PK,RGI60-14.00044,,106184,36.3304,74.0,14_south_asia_west,,,RGI60-14.00044,,,,,
PK,RGI60-14.00052,,106190,36.3375,73.0984,14_south_asia_west,,,RGI60-14.00052,,,,,
PK,RGI60-14.00054,,106191,36.3476,73.0456,14_south_asia_west,,,RGI60-14.00054,,,,,
PK,RGI60-14.00055,,106192,36.3442,73.0454,14_south_asia_west,,,RGI60-14.00055,,,,,
PK,RGI60-14.00056,,106193,36.3603,73.4309,14_south_asia_west,,,RGI60-14.00056,,,,,
PK,RGI60-14.00058,,106194,36.3875,74.0066,14_south_asia_west,,,RGI60-14.00058,,,,,
PK,RGI60-14.00059,,106195,36.3742,74.0094,14_south_asia_west,,,RGI60-14.00059,,,,,
PK,RGI60-14.00060,,106196,36.3706,74.0167,14_south_asia_west,,,RGI60-14.00060,,,,,
PK,RGI60-14.00061,,106197,36.371,74.0087,14_south_asia_west,,,RGI60-14.00061,,,,,
PK,RGI60-14.00062,,106198,36.3691,74.0107,14_south_asia_west,,,RGI60-14.00062,,,,,
PK,RGI60-14.00064,,106199,36.3766,74.207,14_south_asia_west,,,RGI60-14.00064,,,,,
PK,RGI60-14.00065,,106200,36.3608,72.7758,14_south_asia_west,,,RGI60-14.00065,,,,,
PK,RGI60-14.00066,,106201,36.3654,72.7613,14_south_asia_west,,,RGI60-14.00066,,,,,
PK,RGI60-14.00067,,106202,36.3644,72.7663,14_south_asia_west,,,RGI60-14.00067,,,,,
PK,RGI60-14.00068,,106203,36.4002,74.1683,14_south_asia_west,,,RGI60-14.00068,,,,,
PK,RGI60-14.00069,,106204,36.416,75.2613,14_south_asia_west,,,RGI60-14.00069,,,,,
PK,RGI60-14.00076,,106205,36.4666,75.6901,14_south_asia_west,,,RGI60-14.00076,,,,,
PK,RGI60-14.00077,,106206,36.4576,75.6924,14_south_asia_west,,,RGI60-14.00077,,,,,
PK,RGI60-14.00078,,106207,36.4519,72.9354,14_south_asia_west,,,RGI60-14.00078,,,,,
PK,RGI60-14.00079,,106208,36.4918,74.3881,14_south_asia_west,,,RGI60-14.00079,,,,,
PK,RGI60-14.00081,,106209,36.5282,73.1157,14_south_asia_west,,,RGI60-14.00081,,,,,
PK,RGI60-14.00082,,106210,36.5247,73.1123,14_south_asia_west,,,RGI60-14.00082,,,,,
PK,RGI60-14.00083,,106211,36.5261,72.967,14_south_asia_west,,,RGI60-14.00083,,,,,
PK,RGI60-14.00084,,106212,36.5201,72.9694,14_south_asia_west,,,RGI60-14.00084,,,,,
PK,RGI60-14.00085,,106213,36.5751,75.8397,14_south_asia_west,,,RGI60-14.00085,,,,,
PK,RGI60-14.00086,,106214,36.5691,75.8406,14_south_asia_west,,,RGI60-14.00086,,,,,
PK,RGI60-14.00087,,106215,36.5629,75.8344,14_south_asia_west,,,RGI60-14.00087,,,,,
PK,RGI60-14.00089,,106216,36.5518,75.8651,14_south_asia_west,,,RGI60-14.00089,,,,,
PK,RGI60-14.00090,,106217,36.5597,74.8965,14_south_asia_west,,,RGI60-14.00090,,,,,
PK,RGI60-14.00091,,106218,36.5635,74.8524,14_south_asia_west,,,RGI60-14.00091,,,,,
PK,RGI60-14.00092,,106219,36.5607,74.8716,14_south_asia_west,,,RGI60-14.00092,,,,,
PK,RGI60-14.00097,,106220,36.5951,73.4878,14_south_asia_west,,,RGI60-14.00097,,,,,
PK,RGI60-14.00098,,106221,36.5975,73.4818,14_south_asia_west,,,RGI60-14.00098,,,,,
PK,RGI60-14.00099,,106222,36.6009,75.4813,14_south_asia_west,,,RGI60-14.00099,,,,,
PK,RGI60-14.00100,,106223,36.6024,75.8602,14_south_asia_west,,,RGI60-14.00100,,,,,
PK,RGI60-14.00102,,106224,36.6254,73.6568,14_south_asia_west,,,RGI60-14.00102,,,,,
PK,RGI60-14.00103,,106225,36.6347,75.8361,14_south_asia_west,,,RGI60-14.00103,,,,,
PK,RGI60-14.00109,,106228,36.6937,74.599,14_south_asia_west,,,RGI60-14.00109,,,,,
PK,RGI60-14.00110,,106229,36.6895,74.5916,14_south_asia_west,,,RGI60-14.00110,,,,,
PK,RGI60-14.00112,,106230,36.6667,74.6045,14_south_asia_west,,,RGI60-14.00112,,,,,
PK,RGI60-14.00114,,106231,36.6543,72.9515,14_south_asia_west,,,RGI60-14.00114,,,,,
PK,RGI60-14.00115,,106232,36.6719,74.9422,14_south_asia_west,,,RGI60-14.00115,,,,,
PK,RGI60-14.00116,,106233,36.6677,73.2984,14_south_asia_west,,,RGI60-14.00116,,,,,
PK,RGI60-14.00117,,106234,36.6654,73.3045,14_south_asia_west,,,RGI60-14.00117,,,,,
PK,RGI60-14.00119,,106235,36.7022,73.3171,14_south_asia_west,,,RGI60-14.00119,,,,,
PK,RGI60-14.00121,,106236,36.706,73.3237,14_south_asia_west,,,RGI60-14.00121,,,,,
PK,RGI60-14.00122,,106237,36.7014,73.3225,14_south_asia_west,,,RGI60-14.00122,,,,,
PK,RGI60-14.00123,,106238,36.7021,73.314,14_south_asia_west,,,RGI60-14.00123,,,,,
PK,RGI60-14.00124,,106239,36.6959,73.3124,14_south_asia_west,,,RGI60-14.00124,,,,,
PK,RGI60-14.00126,,106240,36.7225,73.9587,14_south_asia_west,,,RGI60-14.00126,,,,,
PK,RGI60-14.00127,,106241,36.716,73.9538,14_south_asia_west,,,RGI60-14.00127,,,,,
PK,RGI60-14.00128,,106242,36.7353,75.1639,14_south_asia_west,,,RGI60-14.00128,,,,,
PK,RGI60-14.00133,,106246,36.7844,75.0768,14_south_asia_west,,,RGI60-14.00133,,,,,
PK,RGI60-14.00134,,106247,36.8251,75.3817,14_south_asia_west,,,RGI60-14.00134,,,,,
PK,RGI60-14.00135,,106248,36.8218,75.3792,14_south_asia_west,,,RGI60-14.00135,,,,,
PK,RGI60-14.00136,,106249,36.8143,75.3814,14_south_asia_west,,,RGI60-14.00136,,,,,
PK,RGI60-14.00141,,106252,36.8992,74.1676,14_south_asia_west,,,RGI60-14.00141,,,,,
PK,RGI60-14.00143,,106253,36.8892,74.1825,14_south_asia_west,,,RGI60-14.00143,,,,,
PK,RGI60-14.00149,,106257,36.9861,74.9996,14_south_asia_west,,,RGI60-14.00149,,,,,
PK,RGI60-14.00150,,106258,36.9858,74.6118,14_south_asia_west,,,RGI60-14.00150,,,,,
PK,RGI60-14.00151,,106259,36.9846,74.6184,14_south_asia_west,,,RGI60-14.00151,,,,,
PK,RGI60-14.00152,,106260,36.9823,74.6065,14_south_asia_west,,,RGI60-14.00152,,,,,
PK,RGI60-14.00290,,106385,37.0812,74.6986,14_south_asia_west,,,RGI60-14.00290,,,,,
PK,RGI60-14.00301,,106396,37.0714,74.656,14_south_asia_west,,,RGI60-14.00301,,,,,
PK,RGI60-14.00303,,106398,37.0664,74.6584,14_south_asia_west,,,RGI60-14.00303,,,,,
PK,RGI60-14.00304,,106399,37.0686,74.7016,14_south_asia_west,,,RGI60-14.00304,,,,,
PK,RGI60-14.00368,,106452,37.0687,74.6523,14_south_asia_west,,,RGI60-14.00368,,,,,
PK,RGI60-14.00369,,106453,37.0594,74.6276,14_south_asia_west,,,RGI60-14.00369,,,,,
PK,RGI60-14.00371,,106454,37.0525,74.6488,14_south_asia_west,,,RGI60-14.00371,,,,,
PK,RGI60-14.00374,,106456,37.056,74.7202,14_south_asia_west,,,RGI60-14.00374,,,,,
PK,RGI60-14.00375,,106457,37.0537,74.715,14_south_asia_west,,,RGI60-14.00375,,,,,
PK,RGI60-14.00385,,106466,37.0526,74.8398,14_south_asia_west,,,RGI60-14.00385,,,,,
PK,RGI60-14.00386,,106467,37.0524,74.7127,14_south_asia_west,,,RGI60-14.00386,,,,,
PK,RGI60-14.00387,,106468,37.0458,74.7146,14_south_asia_west,,,RGI60-14.00387,,,,,
PK,RGI60-14.00392,,106473,37.0422,74.7158,14_south_asia_west,,,RGI60-14.00392,,,,,
PK,RGI60-14.00393,,106474,37.0395,74.7119,14_south_asia_west,,,RGI60-14.00393,,,,,
PK,RGI60-14.00396,,106477,37.0471,74.8037,14_south_asia_west,,,RGI60-14.00396,,,,,
PK,RGI60-14.00402,,106482,37.059,74.6229,14_south_asia_west,,,RGI60-14.00402,,,,,
PK,RGI60-14.00407,,106486,37.0415,74.8398,14_south_asia_west,,,RGI60-14.00407,,,,,
PK,RGI60-14.00464,,106537,37.0257,74.79,14_south_asia_west,,,RGI60-14.00464,,,,,
PK,RGI60-14.00478,,106548,37.018,74.6537,14_south_asia_west,,,RGI60-14.00478,,,,,
PK,RGI60-14.00483,,106553,37.0129,74.7122,14_south_asia_west,,,RGI60-14.00483,,,,,
PK,RGI60-14.00484,,106554,37.0158,74.7725,14_south_asia_west,,,RGI60-14.00484,,,,,
PK,RGI60-14.00485,,106555,37.0143,74.7826,14_south_asia_west,,,RGI60-14.00485,,,,,
PK,RGI60-14.00507,,106573,37.0184,74.7365,14_south_asia_west,,,RGI60-14.00507,,,,,
PK,RGI60-14.00525,,106590,37.0065,74.5583,14_south_asia_west,,,RGI60-14.00525,,,,,
PK,RGI60-14.00540,,106602,37.0086,74.7766,14_south_asia_west,,,RGI60-14.00540,,,,,
PK,RGI60-14.00544,,106605,37.0096,75.0331,14_south_asia_west,,,RGI60-14.00544,,,,,
PK,RGI60-14.00566,,106622,36.9976,75.0682,14_south_asia_west,,,RGI60-14.00566,,,,,
PK,RGI60-14.00567,,106623,36.9977,75.0613,14_south_asia_west,,,RGI60-14.00567,,,,,
PK,RGI60-14.00568,,106624,36.9898,75.0737,14_south_asia_west,,,RGI60-14.00568,,,,,
PK,RGI60-14.00573,,106627,36.9844,74.6018,14_south_asia_west,,,RGI60-14.00573,,,,,
PK,RGI60-14.00578,,106632,36.9884,74.6697,14_south_asia_west,,,RGI60-14.00578,,,,,
PK,RGI60-14.00586,,106638,36.9915,74.7235,14_south_asia_west,,,RGI60-14.00586,,,,,
PK,RGI60-14.00594,,106644,36.9928,74.9737,14_south_asia_west,,,RGI60-14.00594,,,,,
PK,RGI60-14.00596,,106645,36.9986,74.7328,14_south_asia_west,,,RGI60-14.00596,,,,,
PK,RGI60-14.00599,,106648,36.9895,74.7464,14_south_asia_west,,,RGI60-14.00599,,,,,
PK,RGI60-14.00602,,106650,36.9873,75.0776,14_south_asia_west,,,RGI60-14.00602,,,,,
PK,RGI60-14.00603,,106651,36.9817,75.068,14_south_asia_west,,,RGI60-14.00603,,,,,
PK,RGI60-14.00604,,106652,37.0002,74.4284,14_south_asia_west,,,RGI60-14.00604,,,,,
PK,RGI60-14.00605,,106653,36.9809,74.4205,14_south_asia_west,,,RGI60-14.00605,,,,,
PK,RGI60-14.00613,,106660,36.9823,74.7402,14_south_asia_west,,,RGI60-14.00613,,,,,
PK,RGI60-14.00614,,106661,36.9793,74.7511,14_south_asia_west,,,RGI60-14.00614,,,,,
PK,RGI60-14.00618,,106663,37.0032,75.0764,14_south_asia_west,,,RGI60-14.00618,,,,,
PK,RGI60-14.00620,,106665,36.9657,74.8097,14_south_asia_west,,,RGI60-14.00620,,,,,
PK,RGI60-14.00621,,106666,36.9673,74.8184,14_south_asia_west,,,RGI60-14.00621,,,,,
PK,RGI60-14.00622,,106667,36.9553,74.8257,14_south_asia_west,,,RGI60-14.00622,,,,,
PK,RGI60-14.00624,,106669,36.976,74.6761,14_south_asia_west,,,RGI60-14.00624,,,,,
PK,RGI60-14.00626,,106671,36.9816,74.9377,14_south_asia_west,,,RGI60-14.00626,,,,,
PK,RGI60-14.00629,,106672,36.9756,75.0993,14_south_asia_west,,,RGI60-14.00629,,,,,
PK,RGI60-14.00630,,106673,36.9768,75.0891,14_south_asia_west,,,RGI60-14.00630,,,,,
PK,RGI60-14.00632,,106674,36.988,74.4774,14_south_asia_west,,,RGI60-14.00632,,,,,
PK,RGI60-14.00633,,106675,36.9847,74.4927,14_south_asia_west,,,RGI60-14.00633,,,,,
PK,RGI60-14.00634,,106676,36.9799,74.479,14_south_asia_west,,,RGI60-14.00634,,,,,
PK,RGI60-14.00635,,106677,36.9791,74.4949,14_south_asia_west,,,RGI60-14.00635,,,,,
PK,RGI60-14.00639,,106680,36.9751,74.4993,14_south_asia_west,,,RGI60-14.00639,,,,,
PK,RGI60-14.00640,,106681,36.9676,74.4991,14_south_asia_west,,,RGI60-14.00640,,,,,
PK,RGI60-14.00641,,106682,36.9739,75.2916,14_south_asia_west,,,RGI60-14.00641,,,,,
PK,RGI60-14.00642,,106683,36.9719,74.6792,14_south_asia_west,,,RGI60-14.00642,,,,,
PK,RGI60-14.00645,,106686,36.9758,75.076,14_south_asia_west,,,RGI60-14.00645,,,,,
PK,RGI60-14.00646,,106687,36.9722,75.082,14_south_asia_west,,,RGI60-14.00646,,,,,
PK,RGI60-14.00647,,106688,36.9719,75.0858,14_south_asia_west,,,RGI60-14.00647,,,,,
PK,RGI60-14.00648,,106689,36.9619,75.0712,14_south_asia_west,,,RGI60-14.00648,,,,,
PK,RGI60-14.00649,,106690,36.9661,75.0834,14_south_asia_west,,,RGI60-14.00649,,,,,
PK,RGI60-14.00654,,106694,36.9747,74.4705,14_south_asia_west,,,RGI60-14.00654,,,,,
PK,RGI60-14.00655,,106695,36.9724,74.8195,14_south_asia_west,,,RGI60-14.00655,,,,,
PK,RGI60-14.00656,,106696,36.9741,74.8265,14_south_asia_west,,,RGI60-14.00656,,,,,
PK,RGI60-14.00657,,106697,36.9697,74.745,14_south_asia_west,,,RGI60-14.00657,,,,,
PK,RGI60-14.00658,,106698,36.9688,74.397,14_south_asia_west,,,RGI60-14.00658,,,,,
PK,RGI60-14.00664,,106703,36.9653,74.5069,14_south_asia_west,,,RGI60-14.00664,,,,,
PK,RGI60-14.00666,,106704,36.9654,74.7479,14_south_asia_west,,,RGI60-14.00666,,,,,
PK,RGI60-14.00677,,106712,36.958,75.1397,14_south_asia_west,,,RGI60-14.00677,,,,,
PK,RGI60-14.00678,,106713,36.9616,75.1271,14_south_asia_west,,,RGI60-14.00678,,,,,
PK,RGI60-14.00679,,106714,36.9533,75.1587,14_south_asia_west,,,RGI60-14.00679,,,,,
PK,RGI60-14.00685,,106717,36.9709,74.4639,14_south_asia_west,,,RGI60-14.00685,,,,,
PK,RGI60-14.00686,,106718,36.9605,74.4554,14_south_asia_west,,,RGI60-14.00686,,,,,
PK,RGI60-14.00687,,106719,36.96,74.4608,14_south_asia_west,,,RGI60-14.00687,,,,,
PK,RGI60-14.00689,,106721,36.9704,75.2103,14_south_asia_west,,,RGI60-14.00689,,,,,
PK,RGI60-14.00691,,106723,36.9606,75.2434,14_south_asia_west,,,RGI60-14.00691,,,,,
PK,RGI60-14.00695,,106726,36.9576,74.5205,14_south_asia_west,,,RGI60-14.00695,,,,,
PK,RGI60-14.00696,,106727,36.9553,74.5162,14_south_asia_west,,,RGI60-14.00696,,,,,
PK,RGI60-14.00701,,106730,36.9592,74.9325,14_south_asia_west,,,RGI60-14.00701,,,,,
PK,RGI60-14.00702,,106731,36.9573,75.2066,14_south_asia_west,,,RGI60-14.00702,,,,,
PK,RGI60-14.00710,,106736,36.9854,74.5541,14_south_asia_west,,,RGI60-14.00710,,,,,
PK,RGI60-14.00711,,106737,36.985,74.5473,14_south_asia_west,,,RGI60-14.00711,,,,,
PK,RGI60-14.00713,,106738,36.9568,74.5372,14_south_asia_west,,,RGI60-14.00713,,,,,
PK,RGI60-14.00714,,106739,36.9592,74.5273,14_south_asia_west,,,RGI60-14.00714,,,,,
PK,RGI60-14.00715,,106740,36.9596,74.6695,14_south_asia_west,,,RGI60-14.00715,,,,,
PK,RGI60-14.00717,,106742,36.9642,75.2533,14_south_asia_west,,,RGI60-14.00717,,,,,
PK,RGI60-14.00718,,106743,36.9585,75.2555,14_south_asia_west,,,RGI60-14.00718,,,,,
PK,RGI60-14.00725,,106749,36.943,75.0565,14_south_asia_west,,,RGI60-14.00725,,,,,
PK,RGI60-14.00726,,106750,36.9409,75.0701,14_south_asia_west,,,RGI60-14.00726,,,,,
PK,RGI60-14.00728,,106751,36.9779,74.6218,14_south_asia_west,,,RGI60-14.00728,,,,,
PK,RGI60-14.00729,,106752,36.9574,75.2122,14_south_asia_west,,,RGI60-14.00729,,,,,
PK,RGI60-14.00730,,106753,36.9502,75.2123,14_south_asia_west,,,RGI60-14.00730,,,,,
PK,RGI60-14.00732,,106755,36.9516,75.1265,14_south_asia_west,,,RGI60-14.00732,,,,,
PK,RGI60-14.00735,,106756,36.9437,74.6475,14_south_asia_west,,,RGI60-14.00735,,,,,
PK,RGI60-14.00736,,106757,36.9499,74.8154,14_south_asia_west,,,RGI60-14.00736,,,,,
PK,RGI60-14.00737,,106758,36.9521,74.6126,14_south_asia_west,,,RGI60-14.00737,,,,,
PK,RGI60-14.00740,,106761,36.9497,75.217,14_south_asia_west,,,RGI60-14.00740,,,,,
PK,RGI60-14.00741,,106762,36.952,74.6305,14_south_asia_west,,,RGI60-14.00741,,,,,
PK,RGI60-14.00743,,106763,36.9505,74.5491,14_south_asia_west,,,RGI60-14.00743,,,,,
PK,RGI60-14.00745,,106764,36.9464,75.1168,14_south_asia_west,,,RGI60-14.00745,,,,,
PK,RGI60-14.00749,,106766,36.9239,74.9687,14_south_asia_west,,,RGI60-14.00749,,,,,
PK,RGI60-14.00756,,106770,36.9541,75.2226,14_south_asia_west,,,RGI60-14.00756,,,,,
PK,RGI60-14.00758,,106772,36.9457,75.2268,14_south_asia_west,,,RGI60-14.00758,,,,,
PK,RGI60-14.00761,,106775,36.9629,74.3663,14_south_asia_west,,,RGI60-14.00761,,,,,
PK,RGI60-14.00763,,106777,36.9599,74.3506,14_south_asia_west,,,RGI60-14.00763,,,,,
PK,RGI60-14.00765,,106778,36.9496,74.8304,14_south_asia_west,,,RGI60-14.00765,,,,,
PK,RGI60-14.00770,,106779,36.9472,74.665,14_south_asia_west,,,RGI60-14.00770,,,,,
PK,RGI60-14.00771,,106780,36.943,74.6602,14_south_asia_west,,,RGI60-14.00771,,,,,
PK,RGI60-14.00772,,106781,36.9455,74.6515,14_south_asia_west,,,RGI60-14.00772,,,,,
PK,RGI60-14.00779,,106786,36.9554,74.5865,14_south_asia_west,,,RGI60-14.00779,,,,,
PK,RGI60-14.00789,,106792,36.9316,75.0633,14_south_asia_west,,,RGI60-14.00789,,,,,
PK,RGI60-14.00790,,106793,36.9237,75.0691,14_south_asia_west,,,RGI60-14.00790,,,,,
PK,RGI60-14.00791,,106794,36.9165,75.0712,14_south_asia_west,,,RGI60-14.00791,,,,,
PK,RGI60-14.00792,,106795,36.9114,75.0663,14_south_asia_west,,,RGI60-14.00792,,,,,
PK,RGI60-14.00793,,106796,36.9183,75.3206,14_south_asia_west,,,RGI60-14.00793,,,,,
PK,RGI60-14.00794,,106797,36.9319,75.312,14_south_asia_west,,,RGI60-14.00794,,,,,
PK,RGI60-14.00795,,106798,36.9273,75.3141,14_south_asia_west,,,RGI60-14.00795,,,,,
PK,RGI60-14.00797,,106799,36.987,74.8298,14_south_asia_west,,,RGI60-14.00797,,,,,
PK,RGI60-14.00798,,106800,36.9775,74.8301,14_south_asia_west,,,RGI60-14.00798,,,,,
PK,RGI60-14.00800,,106801,36.9461,74.8466,14_south_asia_west,,,RGI60-14.00800,,,,,
PK,RGI60-14.00803,,106803,36.9474,75.1036,14_south_asia_west,,,RGI60-14.00803,,,,,
PK,RGI60-14.00804,,106804,36.9356,75.1004,14_south_asia_west,,,RGI60-14.00804,,,,,
PK,RGI60-14.00810,,106807,36.9293,74.6616,14_south_asia_west,,,RGI60-14.00810,,,,,
PK,RGI60-14.00811,,106808,36.9247,74.6592,14_south_asia_west,,,RGI60-14.00811,,,,,
PK,RGI60-14.00813,,106809,36.9243,74.4232,14_south_asia_west,,,RGI60-14.00813,,,,,
PK,RGI60-14.00814,,106810,36.9335,74.6917,14_south_asia_west,,,RGI60-14.00814,,,,,
PK,RGI60-14.00819,,106814,36.9419,75.0852,14_south_asia_west,,,RGI60-14.00819,,,,,
PK,RGI60-14.00820,,106815,36.9486,75.0955,14_south_asia_west,,,RGI60-14.00820,,,,,
PK,RGI60-14.00821,,106816,36.9453,75.0723,14_south_asia_west,,,RGI60-14.00821,,,,,
PK,RGI60-14.00823,,106817,36.9281,74.6152,14_south_asia_west,,,RGI60-14.00823,,,,,
PK,RGI60-14.00824,,106818,36.9138,74.6159,14_south_asia_west,,,RGI60-14.00824,,,,,
PK,RGI60-14.00825,,106819,36.9181,74.6076,14_south_asia_west,,,RGI60-14.00825,,,,,
PK,RGI60-14.00844,,106831,36.9255,74.5599,14_south_asia_west,,,RGI60-14.00844,,,,,
PK,RGI60-14.00845,,106832,36.9331,74.7533,14_south_asia_west,,,RGI60-14.00845,,,,,
PK,RGI60-14.00846,,106833,36.9423,74.9405,14_south_asia_west,,,RGI60-14.00846,,,,,
PK,RGI60-14.00848,,106835,36.9358,74.9302,14_south_asia_west,,,RGI60-14.00848,,,,,
PK,RGI60-14.00849,,106836,36.9254,74.6811,14_south_asia_west,,,RGI60-14.00849,,,,,
PK,RGI60-14.00853,,106839,36.9329,74.7708,14_south_asia_west,,,RGI60-14.00853,,,,,
PK,RGI60-14.00854,,106840,36.926,74.7674,14_south_asia_west,,,RGI60-14.00854,,,,,
PK,RGI60-14.00855,,106841,36.9253,75.1024,14_south_asia_west,,,RGI60-14.00855,,,,,
PK,RGI60-14.00859,,106844,36.9177,74.668,14_south_asia_west,,,RGI60-14.00859,,,,,
PK,RGI60-14.00860,,106845,36.9151,74.662,14_south_asia_west,,,RGI60-14.00860,,,,,
PK,RGI60-14.00861,,106846,36.9069,74.6603,14_south_asia_west,,,RGI60-14.00861,,,,,
PK,RGI60-14.00871,,106853,36.924,74.922,14_south_asia_west,,,RGI60-14.00871,,,,,
PK,RGI60-14.00874,,106856,36.9136,74.5734,14_south_asia_west,,,RGI60-14.00874,,,,,
PK,RGI60-14.00877,,106857,36.9172,75.1793,14_south_asia_west,,,RGI60-14.00877,,,,,
PK,RGI60-14.00897,,106872,36.902,75.2402,14_south_asia_west,,,RGI60-14.00897,,,,,
PK,RGI60-14.00901,,106873,36.9132,74.6841,14_south_asia_west,,,RGI60-14.00901,,,,,
PK,RGI60-14.00908,,106875,36.9111,74.6899,14_south_asia_west,,,RGI60-14.00908,,,,,
PK,RGI60-14.00909,,106876,36.9101,74.6008,14_south_asia_west,,,RGI60-14.00909,,,,,
PK,RGI60-14.00910,,106877,36.9052,74.618,14_south_asia_west,,,RGI60-14.00910,,,,,
PK,RGI60-14.00911,,106878,36.9096,75.1276,14_south_asia_west,,,RGI60-14.00911,,,,,
PK,RGI60-14.00912,,106879,36.9046,74.4723,14_south_asia_west,,,RGI60-14.00912,,,,,
PK,RGI60-14.00917,,106882,36.923,74.8779,14_south_asia_west,,,RGI60-14.00917,,,,,
PK,RGI60-14.00918,,106883,36.9164,74.8877,14_south_asia_west,,,RGI60-14.00918,,,,,
PK,RGI60-14.00919,,106884,36.9079,74.9174,14_south_asia_west,,,RGI60-14.00919,,,,,
PK,RGI60-14.00920,,106885,36.9053,74.9253,14_south_asia_west,,,RGI60-14.00920,,,,,
PK,RGI60-14.00922,,106886,36.9263,74.6123,14_south_asia_west,,,RGI60-14.00922,,,,,
PK,RGI60-14.00923,,106887,36.9229,74.5707,14_south_asia_west,,,RGI60-14.00923,,,,,
PK,RGI60-14.00924,,106888,36.9129,74.7908,14_south_asia_west,,,RGI60-14.00924,,,,,
PK,RGI60-14.00928,,106891,36.9047,75.1291,14_south_asia_west,,,RGI60-14.00928,,,,,
PK,RGI60-14.00931,,106892,36.9026,74.2007,14_south_asia_west,,,RGI60-14.00931,,,,,
PK,RGI60-14.00932,,106893,36.9049,74.1984,14_south_asia_west,,,RGI60-14.00932,,,,,
PK,RGI60-14.00933,,106894,36.9047,74.1958,14_south_asia_west,,,RGI60-14.00933,,,,,
PK,RGI60-14.00934,,106895,36.9016,74.1965,14_south_asia_west,,,RGI60-14.00934,,,,,
PK,RGI60-14.00935,,106896,36.8975,74.6739,14_south_asia_west,,,RGI60-14.00935,,,,,
PK,RGI60-14.00938,,106897,36.9105,74.1768,14_south_asia_west,,,RGI60-14.00938,,,,,
PK,RGI60-14.00939,,106898,36.904,74.1752,14_south_asia_west,,,RGI60-14.00939,,,,,
PK,RGI60-14.00945,,106899,36.9083,75.1165,14_south_asia_west,,,RGI60-14.00945,,,,,
PK,RGI60-14.00946,,106900,36.9218,75.1043,14_south_asia_west,,,RGI60-14.00946,,,,,
PK,RGI60-14.00947,,106901,36.9155,75.1111,14_south_asia_west,,,RGI60-14.00947,,,,,
PK,RGI60-14.00948,,106902,36.9175,75.1278,14_south_asia_west,,,RGI60-14.00948,,,,,
PK,RGI60-14.00949,,106903,36.9048,75.1231,14_south_asia_west,,,RGI60-14.00949,,,,,
PK,RGI60-14.00950,,106904,36.9029,74.6148,14_south_asia_west,,,RGI60-14.00950,,,,,
PK,RGI60-14.00953,,106905,36.8925,74.7566,14_south_asia_west,,,RGI60-14.00953,,,,,
PK,RGI60-14.00955,,106907,36.896,74.4933,14_south_asia_west,,,RGI60-14.00955,,,,,
PK,RGI60-14.00956,,106908,36.8781,74.4838,14_south_asia_west,,,RGI60-14.00956,,,,,
PK,RGI60-14.00965,,106911,36.8835,75.2424,14_south_asia_west,,,RGI60-14.00965,,,,,
PK,RGI60-14.00966,,106912,36.9035,74.9065,14_south_asia_west,,,RGI60-14.00966,,,,,
PK,RGI60-14.00972,,106915,36.8958,74.2213,14_south_asia_west,,,RGI60-14.00972,,,,,
PK,RGI60-14.00974,,106916,36.9104,74.3858,14_south_asia_west,,,RGI60-14.00974,,,,,
PK,RGI60-14.00975,,106917,36.9104,74.3462,14_south_asia_west,,,RGI60-14.00975,,,,,
PK,RGI60-14.00976,,106918,36.9013,74.3846,14_south_asia_west,,,RGI60-14.00976,,,,,
PK,RGI60-14.00977,,106919,36.8984,74.3805,14_south_asia_west,,,RGI60-14.00977,,,,,
PK,RGI60-14.00978,,106920,36.8925,74.6807,14_south_asia_west,,,RGI60-14.00978,,,,,
PK,RGI60-14.00979,,106921,36.8947,74.2309,14_south_asia_west,,,RGI60-14.00979,,,,,
PK,RGI60-14.00980,,106922,36.8912,74.23,14_south_asia_west,,,RGI60-14.00980,,,,,
PK,RGI60-14.00982,,106923,36.9065,74.8768,14_south_asia_west,,,RGI60-14.00982,,,,,
PK,RGI60-14.00986,,106927,36.8979,74.212,14_south_asia_west,,,RGI60-14.00986,,,,,
PK,RGI60-14.00987,,106928,36.9034,74.2039,14_south_asia_west,,,RGI60-14.00987,,,,,
PK,RGI60-14.00997,,106932,36.8953,74.445,14_south_asia_west,,,RGI60-14.00997,,,,,
PK,RGI60-14.00998,,106933,36.894,74.4405,14_south_asia_west,,,RGI60-14.00998,,,,,
PK,RGI60-14.00999,,106934,36.8919,74.4427,14_south_asia_west,,,RGI60-14.00999,,,,,
PK,RGI60-14.01000,,106935,36.8713,74.4922,14_south_asia_west,,,RGI60-14.01000,,,,,
PK,RGI60-14.01009,,106939,36.89,74.2584,14_south_asia_west,,,RGI60-14.01009,,,,,
PK,RGI60-14.01010,,106940,36.8988,74.8901,14_south_asia_west,,,RGI60-14.01010,,,,,
PK,RGI60-14.01011,,106941,36.9064,74.8886,14_south_asia_west,,,RGI60-14.01011,,,,,
PK,RGI60-14.01012,,106942,36.8927,74.8915,14_south_asia_west,,,RGI60-14.01012,,,,,
PK,RGI60-14.01014,,106943,36.8904,74.9173,14_south_asia_west,,,RGI60-14.01014,,,,,
PK,RGI60-14.01015,,106944,36.8885,74.909,14_south_asia_west,,,RGI60-14.01015,,,,,
PK,RGI60-14.01016,,106945,36.8864,74.9214,14_south_asia_west,,,RGI60-14.01016,,,,,
PK,RGI60-14.01019,,106947,36.8869,74.6752,14_south_asia_west,,,RGI60-14.01019,,,,,
PK,RGI60-14.01021,,106949,36.9383,74.8561,14_south_asia_west,,,RGI60-14.01021,,,,,
PK,RGI60-14.01023,,106950,36.9327,74.8684,14_south_asia_west,,,RGI60-14.01023,,,,,
PK,RGI60-14.01024,,106951,36.9164,74.8686,14_south_asia_west,,,RGI60-14.01024,,,,,
PK,RGI60-14.01025,,106952,36.9073,74.8148,14_south_asia_west,,,RGI60-14.01025,,,,,
PK,RGI60-14.01028,,106953,36.8884,74.3537,14_south_asia_west,,,RGI60-14.01028,,,,,
PK,RGI60-14.01029,,106954,36.8804,74.3562,14_south_asia_west,,,RGI60-14.01029,,,,,
PK,RGI60-14.01030,,106955,36.8759,74.3738,14_south_asia_west,,,RGI60-14.01030,,,,,
PK,RGI60-14.01044,,106965,36.8763,73.8416,14_south_asia_west,,,RGI60-14.01044,,,,,
PK,RGI60-14.01045,,106966,36.8803,74.6808,14_south_asia_west,,,RGI60-14.01045,,,,,
PK,RGI60-14.01046,,106967,36.8806,74.6767,14_south_asia_west,,,RGI60-14.01046,,,,,
PK,RGI60-14.01047,,106968,36.9171,74.4492,14_south_asia_west,,,RGI60-14.01047,,,,,
PK,RGI60-14.01048,,106969,36.9141,74.4498,14_south_asia_west,,,RGI60-14.01048,,,,,
PK,RGI60-14.01050,,106970,36.9058,74.449,14_south_asia_west,,,RGI60-14.01050,,,,,
PK,RGI60-14.01051,,106971,36.8962,74.4486,14_south_asia_west,,,RGI60-14.01051,,,,,
PK,RGI60-14.01058,,106977,36.881,74.8036,14_south_asia_west,,,RGI60-14.01058,,,,,
PK,RGI60-14.01059,,106978,36.8775,74.6824,14_south_asia_west,,,RGI60-14.01059,,,,,
PK,RGI60-14.01060,,106979,36.875,74.1866,14_south_asia_west,,,RGI60-14.01060,,,,,
PK,RGI60-14.01062,,106981,36.879,73.8898,14_south_asia_west,,,RGI60-14.01062,,,,,
PK,RGI60-14.01065,,106982,36.8832,74.4802,14_south_asia_west,,,RGI60-14.01065,,,,,
PK,RGI60-14.01066,,106983,36.8822,74.4631,14_south_asia_west,,,RGI60-14.01066,,,,,
PK,RGI60-14.01067,,106984,36.88,74.4597,14_south_asia_west,,,RGI60-14.01067,,,,,
PK,RGI60-14.01068,,106985,36.8791,74.4781,14_south_asia_west,,,RGI60-14.01068,,,,,
PK,RGI60-14.01069,,106986,36.9521,75.3559,14_south_asia_west,,,RGI60-14.01069,,,,,
PK,RGI60-14.01071,,106987,36.9479,75.371,14_south_asia_west,,,RGI60-14.01071,,,,,
PK,RGI60-14.01072,,106988,36.9096,75.3243,14_south_asia_west,,,RGI60-14.01072,,,,,
PK,RGI60-14.01073,,106989,36.9109,75.3484,14_south_asia_west,,,RGI60-14.01073,,,,,
PK,RGI60-14.01084,,106998,36.8834,74.9149,14_south_asia_west,,,RGI60-14.01084,,,,,
PK,RGI60-14.01090,,107002,36.885,74.8954,14_south_asia_west,,,RGI60-14.01090,,,,,
PK,RGI60-14.01091,,107003,36.878,74.8914,14_south_asia_west,,,RGI60-14.01091,,,,,
PK,RGI60-14.01092,,107004,36.8702,74.2893,14_south_asia_west,,,RGI60-14.01092,,,,,
PK,RGI60-14.01093,,107005,36.8659,74.2841,14_south_asia_west,,,RGI60-14.01093,,,,,
PK,RGI60-14.01094,,107006,36.8815,74.421,14_south_asia_west,,,RGI60-14.01094,,,,,
PK,RGI60-14.01095,,107007,36.883,74.4315,14_south_asia_west,,,RGI60-14.01095,,,,,
PK,RGI60-14.01096,,107008,36.8733,74.4196,14_south_asia_west,,,RGI60-14.01096,,,,,
PK,RGI60-14.01098,,107010,36.8649,74.5188,14_south_asia_west,,,RGI60-14.01098,,,,,
PK,RGI60-14.01099,,107011,36.8701,74.5257,14_south_asia_west,,,RGI60-14.01099,,,,,
PK,RGI60-14.01100,,107012,36.8647,74.5244,14_south_asia_west,,,RGI60-14.01100,,,,,
PK,RGI60-14.01101,,107013,36.864,74.5105,14_south_asia_west,,,RGI60-14.01101,,,,,
PK,RGI60-14.01103,,107015,36.891,74.8199,14_south_asia_west,,,RGI60-14.01103,,,,,
PK,RGI60-14.01104,,107016,36.8691,74.4195,14_south_asia_west,,,RGI60-14.01104,,,,,
PK,RGI60-14.01105,,107017,36.8741,75.2423,14_south_asia_west,,,RGI60-14.01105,,,,,
PK,RGI60-14.01109,,107019,36.8679,73.6964,14_south_asia_west,,,RGI60-14.01109,,,,,
PK,RGI60-14.01110,,107020,36.8598,73.7019,14_south_asia_west,,,RGI60-14.01110,,,,,
PK,RGI60-14.01113,,107023,36.8767,74.6799,14_south_asia_west,,,RGI60-14.01113,,,,,
PK,RGI60-14.01114,,107024,36.8712,74.6718,14_south_asia_west,,,RGI60-14.01114,,,,,
PK,RGI60-14.01115,,107025,36.8679,74.6755,14_south_asia_west,,,RGI60-14.01115,,,,,
PK,RGI60-14.01116,,107026,36.8627,74.6818,14_south_asia_west,,,RGI60-14.01116,,,,,
PK,RGI60-14.01117,,107027,36.8764,73.8928,14_south_asia_west,,,RGI60-14.01117,,,,,
PK,RGI60-14.01118,,107028,36.8703,73.9008,14_south_asia_west,,,RGI60-14.01118,,,,,
PK,RGI60-14.01119,,107029,36.8661,73.9067,14_south_asia_west,,,RGI60-14.01119,,,,,
PK,RGI60-14.01121,,107030,36.8756,75.285,14_south_asia_west,,,RGI60-14.01121,,,,,
PK,RGI60-14.01123,,107032,36.8692,74.507,14_south_asia_west,,,RGI60-14.01123,,,,,
PK,RGI60-14.01124,,107033,36.8759,74.5177,14_south_asia_west,,,RGI60-14.01124,,,,,
PK,RGI60-14.01125,,107034,36.8787,74.7902,14_south_asia_west,,,RGI60-14.01125,,,,,
PK,RGI60-14.01126,,107035,36.8745,74.7977,14_south_asia_west,,,RGI60-14.01126,,,,,
PK,RGI60-14.01127,,107036,36.87,74.7941,14_south_asia_west,,,RGI60-14.01127,,,,,
PK,RGI60-14.01128,,107037,36.8616,74.8388,14_south_asia_west,,,RGI60-14.01128,,,,,
PK,RGI60-14.01129,,107038,36.8658,74.8423,14_south_asia_west,,,RGI60-14.01129,,,,,
PK,RGI60-14.01131,,107040,36.8736,75.3013,14_south_asia_west,,,RGI60-14.01131,,,,,
PK,RGI60-14.01134,,107042,36.868,74.3201,14_south_asia_west,,,RGI60-14.01134,,,,,
PK,RGI60-14.01135,,107043,36.8635,74.3243,14_south_asia_west,,,RGI60-14.01135,,,,,
PK,RGI60-14.01136,,107044,36.8667,75.2455,14_south_asia_west,,,RGI60-14.01136,,,,,
PK,RGI60-14.01137,,107045,36.8688,75.2581,14_south_asia_west,,,RGI60-14.01137,,,,,
PK,RGI60-14.01138,,107046,36.8664,75.2487,14_south_asia_west,,,RGI60-14.01138,,,,,
PK,RGI60-14.01140,,107048,36.8694,74.7653,14_south_asia_west,,,RGI60-14.01140,,,,,
PK,RGI60-14.01141,,107049,36.8624,74.3272,14_south_asia_west,,,RGI60-14.01141,,,,,
PK,RGI60-14.01142,,107050,36.8693,75.2705,14_south_asia_west,,,RGI60-14.01142,,,,,
PK,RGI60-14.01144,,107051,36.8702,75.3759,14_south_asia_west,,,RGI60-14.01144,,,,,
PK,RGI60-14.01146,,107052,36.8638,74.8978,14_south_asia_west,,,RGI60-14.01146,,,,,
PK,RGI60-14.01147,,107053,36.8772,74.7839,14_south_asia_west,,,RGI60-14.01147,,,,,
PK,RGI60-14.01148,,107054,36.8675,74.7813,14_south_asia_west,,,RGI60-14.01148,,,,,
PK,RGI60-14.01151,,107055,36.8637,74.9229,14_south_asia_west,,,RGI60-14.01151,,,,,
PK,RGI60-14.01154,,107058,36.8605,75.2807,14_south_asia_west,,,RGI60-14.01154,,,,,
PK,RGI60-14.01156,,107060,36.8588,74.5375,14_south_asia_west,,,RGI60-14.01156,,,,,
PK,RGI60-14.01157,,107061,36.8647,74.5265,14_south_asia_west,,,RGI60-14.01157,,,,,
PK,RGI60-14.01158,,107062,36.863,74.5325,14_south_asia_west,,,RGI60-14.01158,,,,,
PK,RGI60-14.01159,,107063,36.863,74.5298,14_south_asia_west,,,RGI60-14.01159,,,,,
PK,RGI60-14.01160,,107064,36.8533,73.7311,14_south_asia_west,,,RGI60-14.01160,,,,,
PK,RGI60-14.01162,,107066,36.8649,74.8307,14_south_asia_west,,,RGI60-14.01162,,,,,
PK,RGI60-14.01163,,107067,36.8614,74.8215,14_south_asia_west,,,RGI60-14.01163,,,,,
PK,RGI60-14.01164,,107068,36.8525,74.8134,14_south_asia_west,,,RGI60-14.01164,,,,,
PK,RGI60-14.01167,,107069,36.8643,75.3272,14_south_asia_west,,,RGI60-14.01167,,,,,
PK,RGI60-14.01170,,107070,36.8596,74.7764,14_south_asia_west,,,RGI60-14.01170,,,,,
PK,RGI60-14.01172,,107071,36.8542,74.5592,14_south_asia_west,,,RGI60-14.01172,,,,,
PK,RGI60-14.01174,,107072,36.8436,74.9078,14_south_asia_west,,,RGI60-14.01174,,,,,
PK,RGI60-14.01178,,107075,36.8405,73.6418,14_south_asia_west,,,RGI60-14.01178,,,,,
PK,RGI60-14.01179,,107076,36.8407,73.6341,14_south_asia_west,,,RGI60-14.01179,,,,,
PK,RGI60-14.01180,,107077,36.8481,74.1548,14_south_asia_west,,,RGI60-14.01180,,,,,
PK,RGI60-14.01181,,107078,36.8483,74.1669,14_south_asia_west,,,RGI60-14.01181,,,,,
PK,RGI60-14.01182,,107079,36.841,74.1519,14_south_asia_west,,,RGI60-14.01182,,,,,
PK,RGI60-14.01183,,107080,36.858,74.9002,14_south_asia_west,,,RGI60-14.01183,,,,,
PK,RGI60-14.01184,,107081,36.8505,74.8983,14_south_asia_west,,,RGI60-14.01184,,,,,
PK,RGI60-14.01185,,107082,36.8501,74.9051,14_south_asia_west,,,RGI60-14.01185,,,,,
PK,RGI60-14.01189,,107085,36.8551,74.7508,14_south_asia_west,,,RGI60-14.01189,,,,,
PK,RGI60-14.01194,,107089,36.8477,74.5729,14_south_asia_west,,,RGI60-14.01194,,,,,
PK,RGI60-14.01195,,107090,36.8448,74.5879,14_south_asia_west,,,RGI60-14.01195,,,,,
PK,RGI60-14.01196,,107091,36.8455,74.5761,14_south_asia_west,,,RGI60-14.01196,,,,,
PK,RGI60-14.01199,,107093,36.843,74.1728,14_south_asia_west,,,RGI60-14.01199,,,,,
PK,RGI60-14.01200,,107094,36.8438,74.5912,14_south_asia_west,,,RGI60-14.01200,,,,,
PK,RGI60-14.01203,,107095,36.8543,73.7133,14_south_asia_west,,,RGI60-14.01203,,,,,
PK,RGI60-14.01205,,107096,36.8273,73.4079,14_south_asia_west,,,RGI60-14.01205,,,,,
PK,RGI60-14.01213,,107100,36.8483,74.1264,14_south_asia_west,,,RGI60-14.01213,,,,,
PK,RGI60-14.01214,,107101,36.8392,74.1232,14_south_asia_west,,,RGI60-14.01214,,,,,
PK,RGI60-14.01216,,107102,36.8449,74.8302,14_south_asia_west,,,RGI60-14.01216,,,,,
PK,RGI60-14.01217,,107103,36.8309,73.6172,14_south_asia_west,,,RGI60-14.01217,,,,,
PK,RGI60-14.01218,,107104,36.8502,74.766,14_south_asia_west,,,RGI60-14.01218,,,,,
PK,RGI60-14.01219,,107105,36.8565,74.7707,14_south_asia_west,,,RGI60-14.01219,,,,,
PK,RGI60-14.01223,,107107,36.8375,74.0984,14_south_asia_west,,,RGI60-14.01223,,,,,
PK,RGI60-14.01225,,107108,36.8296,73.6239,14_south_asia_west,,,RGI60-14.01225,,,,,
PK,RGI60-14.01227,,107109,36.7659,73.913,14_south_asia_west,,,RGI60-14.01227,,,,,
PK,RGI60-14.01231,,107111,36.8444,74.9057,14_south_asia_west,,,RGI60-14.01231,,,,,
PK,RGI60-14.01232,,107112,36.8403,74.9029,14_south_asia_west,,,RGI60-14.01232,,,,,
PK,RGI60-14.01236,,107115,36.8366,74.0853,14_south_asia_west,,,RGI60-14.01236,,,,,
PK,RGI60-14.01237,,107116,36.8345,74.0055,14_south_asia_west,,,RGI60-14.01237,,,,,
PK,RGI60-14.01239,,107117,36.8302,73.6344,14_south_asia_west,,,RGI60-14.01239,,,,,
PK,RGI60-14.01240,,107118,36.8296,73.6255,14_south_asia_west,,,RGI60-14.01240,,,,,
PK,RGI60-14.01241,,107119,36.8356,74.0889,14_south_asia_west,,,RGI60-14.01241,,,,,
PK,RGI60-14.01242,,107120,36.837,73.7019,14_south_asia_west,,,RGI60-14.01242,,,,,
PK,RGI60-14.01243,,107121,36.8313,73.7008,14_south_asia_west,,,RGI60-14.01243,,,,,
PK,RGI60-14.01245,,107122,36.8314,73.7286,14_south_asia_west,,,RGI60-14.01245,,,,,
PK,RGI60-14.01246,,107123,36.8319,73.8549,14_south_asia_west,,,RGI60-14.01246,,,,,
PK,RGI60-14.01247,,107124,36.8342,73.8512,14_south_asia_west,,,RGI60-14.01247,,,,,
PK,RGI60-14.01248,,107125,36.8378,74.9255,14_south_asia_west,,,RGI60-14.01248,,,,,
PK,RGI60-14.01249,,107126,36.8355,74.9326,14_south_asia_west,,,RGI60-14.01249,,,,,
PK,RGI60-14.01251,,107128,36.8279,75.4222,14_south_asia_west,,,RGI60-14.01251,,,,,
PK,RGI60-14.01257,,107133,36.8335,73.7105,14_south_asia_west,,,RGI60-14.01257,,,,,
PK,RGI60-14.01259,,107134,36.8356,74.7575,14_south_asia_west,,,RGI60-14.01259,,,,,
PK,RGI60-14.01268,,107140,36.8244,73.7311,14_south_asia_west,,,RGI60-14.01268,,,,,
PK,RGI60-14.01270,,107142,36.8453,74.8198,14_south_asia_west,,,RGI60-14.01270,,,,,
PK,RGI60-14.01271,,107143,36.8394,74.8238,14_south_asia_west,,,RGI60-14.01271,,,,,
PK,RGI60-14.01272,,107144,36.8354,74.8116,14_south_asia_west,,,RGI60-14.01272,,,,,
PK,RGI60-14.01273,,107145,36.8283,74.8155,14_south_asia_west,,,RGI60-14.01273,,,,,
PK,RGI60-14.01276,,107148,36.8244,73.8633,14_south_asia_west,,,RGI60-14.01276,,,,,
PK,RGI60-14.01282,,107152,36.8248,75.4148,14_south_asia_west,,,RGI60-14.01282,,,,,
PK,RGI60-14.01284,,107154,36.8146,73.4591,14_south_asia_west,,,RGI60-14.01284,,,,,
PK,RGI60-14.01287,,107155,36.7293,73.279,14_south_asia_west,,,RGI60-14.01287,,,,,
PK,RGI60-14.01290,,107157,36.82,75.0452,14_south_asia_west,,,RGI60-14.01290,,,,,
PK,RGI60-14.01292,,107158,36.8334,73.7691,14_south_asia_west,,,RGI60-14.01292,,,,,
PK,RGI60-14.01294,,107159,36.8111,75.0222,14_south_asia_west,,,RGI60-14.01294,,,,,
PK,RGI60-14.01296,,107160,36.8108,73.4266,14_south_asia_west,,,RGI60-14.01296,,,,,
PK,RGI60-14.01297,,107161,36.8246,73.7465,14_south_asia_west,,,RGI60-14.01297,,,,,
PK,RGI60-14.01298,,107162,36.8204,73.7429,14_south_asia_west,,,RGI60-14.01298,,,,,
PK,RGI60-14.01299,,107163,36.8163,73.7558,14_south_asia_west,,,RGI60-14.01299,,,,,
PK,RGI60-14.01305,,107169,36.8096,75.03,14_south_asia_west,,,RGI60-14.01305,,,,,
PK,RGI60-14.01311,,107174,36.8125,74.2316,14_south_asia_west,,,RGI60-14.01311,,,,,
PK,RGI60-14.01312,,107175,36.816,75.0979,14_south_asia_west,,,RGI60-14.01312,,,,,
PK,RGI60-14.01313,,107176,36.8332,74.0584,14_south_asia_west,,,RGI60-14.01313,,,,,
PK,RGI60-14.01315,,107177,36.8126,74.0972,14_south_asia_west,,,RGI60-14.01315,,,,,
PK,RGI60-14.01316,,107178,36.8192,73.9134,14_south_asia_west,,,RGI60-14.01316,,,,,
PK,RGI60-14.01317,,107179,36.8085,73.9172,14_south_asia_west,,,RGI60-14.01317,,,,,
PK,RGI60-14.01318,,107180,36.8121,75.2498,14_south_asia_west,,,RGI60-14.01318,,,,,
PK,RGI60-14.01323,,107184,36.8085,74.2388,14_south_asia_west,,,RGI60-14.01323,,,,,
PK,RGI60-14.01325,,107186,36.8087,74.2289,14_south_asia_west,,,RGI60-14.01325,,,,,
PK,RGI60-14.01337,,107192,36.8116,75.4177,14_south_asia_west,,,RGI60-14.01337,,,,,
PK,RGI60-14.01341,,107194,36.812,75.0531,14_south_asia_west,,,RGI60-14.01341,,,,,
PK,RGI60-14.01343,,107195,36.8243,74.0496,14_south_asia_west,,,RGI60-14.01343,,,,,
PK,RGI60-14.01344,,107196,36.8085,75.0938,14_south_asia_west,,,RGI60-14.01344,,,,,
PK,RGI60-14.01345,,107197,36.8155,75.3771,14_south_asia_west,,,RGI60-14.01345,,,,,
PK,RGI60-14.01346,,107198,36.8089,75.3714,14_south_asia_west,,,RGI60-14.01346,,,,,
PK,RGI60-14.01349,,107199,36.8043,75.3845,14_south_asia_west,,,RGI60-14.01349,,,,,
PK,RGI60-14.01350,,107200,36.8083,75.3761,14_south_asia_west,,,RGI60-14.01350,,,,,
PK,RGI60-14.01351,,107201,36.7861,75.305,14_south_asia_west,,,RGI60-14.01351,,,,,
PK,RGI60-14.01352,,107202,36.7919,75.3161,14_south_asia_west,,,RGI60-14.01352,,,,,
PK,RGI60-14.01363,,107204,36.787,74.1098,14_south_asia_west,,,RGI60-14.01363,,,,,
PK,RGI60-14.01365,,107205,36.8122,73.4508,14_south_asia_west,,,RGI60-14.01365,,,,,
PK,RGI60-14.01366,,107206,36.804,73.4484,14_south_asia_west,,,RGI60-14.01366,,,,,
PK,RGI60-14.01367,,107207,36.7992,75.1278,14_south_asia_west,,,RGI60-14.01367,,,,,
PK,RGI60-14.01368,,107208,36.8012,74.0617,14_south_asia_west,,,RGI60-14.01368,,,,,
PK,RGI60-14.01369,,107209,36.808,75.0381,14_south_asia_west,,,RGI60-14.01369,,,,,
PK,RGI60-14.01370,,107210,36.8099,75.0423,14_south_asia_west,,,RGI60-14.01370,,,,,
PK,RGI60-14.01371,,107211,36.8011,75.2534,14_south_asia_west,,,RGI60-14.01371,,,,,
PK,RGI60-14.01372,,107212,36.7849,73.1377,14_south_asia_west,,,RGI60-14.01372,,,,,
PK,RGI60-14.01374,,107213,36.8003,74.2329,14_south_asia_west,,,RGI60-14.01374,,,,,
PK,RGI60-14.01375,,107214,36.7949,74.2299,14_south_asia_west,,,RGI60-14.01375,,,,,
PK,RGI60-14.01382,,107218,36.7893,75.1322,14_south_asia_west,,,RGI60-14.01382,,,,,
PK,RGI60-14.01390,,107224,36.7657,73.097,14_south_asia_west,,,RGI60-14.01390,,,,,
PK,RGI60-14.01392,,107225,36.758,73.9176,14_south_asia_west,,,RGI60-14.01392,,,,,
PK,RGI60-14.01393,,107226,36.7582,73.9689,14_south_asia_west,,,RGI60-14.01393,,,,,
PK,RGI60-14.01397,,107227,36.7958,75.3774,14_south_asia_west,,,RGI60-14.01397,,,,,
PK,RGI60-14.01401,,107229,36.8214,73.8419,14_south_asia_west,,,RGI60-14.01401,,,,,
PK,RGI60-14.01402,,107230,36.8127,73.8401,14_south_asia_west,,,RGI60-14.01402,,,,,
PK,RGI60-14.01403,,107231,36.8042,75.0465,14_south_asia_west,,,RGI60-14.01403,,,,,
PK,RGI60-14.01405,,107232,36.796,75.059,14_south_asia_west,,,RGI60-14.01405,,,,,
PK,RGI60-14.01414,,107240,36.7886,73.5576,14_south_asia_west,,,RGI60-14.01414,,,,,
PK,RGI60-14.01415,,107241,36.7842,73.5641,14_south_asia_west,,,RGI60-14.01415,,,,,
PK,RGI60-14.01416,,107242,36.7833,73.5596,14_south_asia_west,,,RGI60-14.01416,,,,,
PK,RGI60-14.01417,,107243,36.7853,74.2253,14_south_asia_west,,,RGI60-14.01417,,,,,
PK,RGI60-14.01418,,107244,36.7943,75.2557,14_south_asia_west,,,RGI60-14.01418,,,,,
PK,RGI60-14.01419,,107245,36.7894,74.4618,14_south_asia_west,,,RGI60-14.01419,,,,,
PK,RGI60-14.01420,,107246,36.7748,73.1422,14_south_asia_west,,,RGI60-14.01420,,,,,
PK,RGI60-14.01421,,107247,36.7722,73.155,14_south_asia_west,,,RGI60-14.01421,,,,,
PK,RGI60-14.01422,,107248,36.7895,75.3684,14_south_asia_west,,,RGI60-14.01422,,,,,
PK,RGI60-14.01423,,107249,36.7921,75.3792,14_south_asia_west,,,RGI60-14.01423,,,,,
PK,RGI60-14.01424,,107250,36.7864,74.4308,14_south_asia_west,,,RGI60-14.01424,,,,,
PK,RGI60-14.01426,,107251,36.7798,75.2287,14_south_asia_west,,,RGI60-14.01426,,,,,
PK,RGI60-14.01429,,107252,36.7778,73.2833,14_south_asia_west,,,RGI60-14.01429,,,,,
PK,RGI60-14.01430,,107253,36.7716,73.1591,14_south_asia_west,,,RGI60-14.01430,,,,,
PK,RGI60-14.01431,,107254,36.7813,74.4487,14_south_asia_west,,,RGI60-14.01431,,,,,
PK,RGI60-14.01433,,107255,36.785,74.4441,14_south_asia_west,,,RGI60-14.01433,,,,,
PK,RGI60-14.01434,,107256,36.7711,73.1426,14_south_asia_west,,,RGI60-14.01434,,,,,
PK,RGI60-14.01438,,107259,36.7783,73.5108,14_south_asia_west,,,RGI60-14.01438,,,,,
PK,RGI60-14.01439,,107260,36.7859,74.2974,14_south_asia_west,,,RGI60-14.01439,,,,,
PK,RGI60-14.01440,,107261,36.7822,74.5794,14_south_asia_west,,,RGI60-14.01440,,,,,
PK,RGI60-14.01441,,107262,36.7716,74.6278,14_south_asia_west,,,RGI60-14.01441,,,,,
PK,RGI60-14.01443,,107263,36.7679,74.6098,14_south_asia_west,,,RGI60-14.01443,,,,,
PK,RGI60-14.01444,,107264,36.7675,74.5989,14_south_asia_west,,,RGI60-14.01444,,,,,
PK,RGI60-14.01445,,107265,36.7679,74.5725,14_south_asia_west,,,RGI60-14.01445,,,,,
PK,RGI60-14.01446,,107266,36.7671,74.5797,14_south_asia_west,,,RGI60-14.01446,,,,,
PK,RGI60-14.01447,,107267,36.7679,74.6151,14_south_asia_west,,,RGI60-14.01447,,,,,
PK,RGI60-14.01448,,107268,36.764,74.5536,14_south_asia_west,,,RGI60-14.01448,,,,,
PK,RGI60-14.01449,,107269,36.7546,74.6547,14_south_asia_west,,,RGI60-14.01449,,,,,
PK,RGI60-14.01450,,107270,36.7844,75.3157,14_south_asia_west,,,RGI60-14.01450,,,,,
PK,RGI60-14.01452,,107271,36.7869,75.1336,14_south_asia_west,,,RGI60-14.01452,,,,,
PK,RGI60-14.01453,,107272,36.7724,73.2069,14_south_asia_west,,,RGI60-14.01453,,,,,
PK,RGI60-14.01455,,107273,36.7496,74.0514,14_south_asia_west,,,RGI60-14.01455,,,,,
PK,RGI60-14.01461,,107276,36.781,74.4892,14_south_asia_west,,,RGI60-14.01461,,,,,
PK,RGI60-14.01462,,107277,36.7821,74.4619,14_south_asia_west,,,RGI60-14.01462,,,,,
PK,RGI60-14.01463,,107278,36.7715,73.2196,14_south_asia_west,,,RGI60-14.01463,,,,,
PK,RGI60-14.01465,,107279,36.7863,74.4351,14_south_asia_west,,,RGI60-14.01465,,,,,
PK,RGI60-14.01467,,107280,36.8037,75.0888,14_south_asia_west,,,RGI60-14.01467,,,,,
PK,RGI60-14.01468,,107281,36.7956,75.0843,14_south_asia_west,,,RGI60-14.01468,,,,,
PK,RGI60-14.01471,,107282,36.7683,73.2859,14_south_asia_west,,,RGI60-14.01471,,,,,
PK,RGI60-14.01472,,107283,36.7717,73.6908,14_south_asia_west,,,RGI60-14.01472,,,,,
PK,RGI60-14.01473,,107284,36.7661,73.1599,14_south_asia_west,,,RGI60-14.01473,,,,,
PK,RGI60-14.01475,,107285,36.7434,73.165,14_south_asia_west,,,RGI60-14.01475,,,,,
PK,RGI60-14.01476,,107286,36.7365,73.2263,14_south_asia_west,,,RGI60-14.01476,,,,,
PK,RGI60-14.01477,,107287,36.7761,75.3058,14_south_asia_west,,,RGI60-14.01477,,,,,
PK,RGI60-14.01478,,107288,36.7679,75.3127,14_south_asia_west,,,RGI60-14.01478,,,,,
PK,RGI60-14.01482,,107291,36.8042,75.3929,14_south_asia_west,,,RGI60-14.01482,,,,,
PK,RGI60-14.01483,,107292,36.7986,75.3855,14_south_asia_west,,,RGI60-14.01483,,,,,
PK,RGI60-14.01484,,107293,36.7632,73.3244,14_south_asia_west,,,RGI60-14.01484,,,,,
PK,RGI60-14.01487,,107295,36.7618,73.3292,14_south_asia_west,,,RGI60-14.01487,,,,,
PK,RGI60-14.01490,,107296,36.7742,74.1326,14_south_asia_west,,,RGI60-14.01490,,,,,
PK,RGI60-14.01491,,107297,36.7708,74.135,14_south_asia_west,,,RGI60-14.01491,,,,,
PK,RGI60-14.01492,,107298,36.7684,74.1413,14_south_asia_west,,,RGI60-14.01492,,,,,
PK,RGI60-14.01493,,107299,36.7643,74.1855,14_south_asia_west,,,RGI60-14.01493,,,,,
PK,RGI60-14.01495,,107300,36.7271,74.2182,14_south_asia_west,,,RGI60-14.01495,,,,,
PK,RGI60-14.01497,,107301,36.774,74.4992,14_south_asia_west,,,RGI60-14.01497,,,,,
PK,RGI60-14.01500,,107303,36.7933,75.2941,14_south_asia_west,,,RGI60-14.01500,,,,,
PK,RGI60-14.01501,,107304,36.7607,73.1472,14_south_asia_west,,,RGI60-14.01501,,,,,
PK,RGI60-14.01502,,107305,36.7566,73.1523,14_south_asia_west,,,RGI60-14.01502,,,,,
PK,RGI60-14.01503,,107306,36.7724,74.4512,14_south_asia_west,,,RGI60-14.01503,,,,,
PK,RGI60-14.01504,,107307,36.7771,74.5095,14_south_asia_west,,,RGI60-14.01504,,,,,
PK,RGI60-14.01506,,107309,36.7713,74.4923,14_south_asia_west,,,RGI60-14.01506,,,,,
PK,RGI60-14.01508,,107310,36.7998,75.2489,14_south_asia_west,,,RGI60-14.01508,,,,,
PK,RGI60-14.01509,,107311,36.7893,75.247,14_south_asia_west,,,RGI60-14.01509,,,,,
PK,RGI60-14.01510,,107312,36.7815,75.2305,14_south_asia_west,,,RGI60-14.01510,,,,,
PK,RGI60-14.01512,,107313,36.77,74.5147,14_south_asia_west,,,RGI60-14.01512,,,,,
PK,RGI60-14.01513,,107314,36.7786,74.5179,14_south_asia_west,,,RGI60-14.01513,,,,,
PK,RGI60-14.01514,,107315,36.7754,74.5115,14_south_asia_west,,,RGI60-14.01514,,,,,
PK,RGI60-14.01516,,107317,36.7659,74.4605,14_south_asia_west,,,RGI60-14.01516,,,,,
PK,RGI60-14.01518,,107318,36.786,75.255,14_south_asia_west,,,RGI60-14.01518,,,,,
PK,RGI60-14.01520,,107319,36.7573,73.2198,14_south_asia_west,,,RGI60-14.01520,,,,,
PK,RGI60-14.01521,,107320,36.7535,73.0974,14_south_asia_west,,,RGI60-14.01521,,,,,
PK,RGI60-14.01522,,107321,36.7509,73.0937,14_south_asia_west,,,RGI60-14.01522,,,,,
PK,RGI60-14.01527,,107323,36.7609,75.3481,14_south_asia_west,,,RGI60-14.01527,,,,,
PK,RGI60-14.01528,,107324,36.7618,74.2724,14_south_asia_west,,,RGI60-14.01528,,,,,
PK,RGI60-14.01529,,107325,36.7564,74.2737,14_south_asia_west,,,RGI60-14.01529,,,,,
PK,RGI60-14.01530,,107326,36.7659,74.5329,14_south_asia_west,,,RGI60-14.01530,,,,,
PK,RGI60-14.01531,,107327,36.7407,73.0271,14_south_asia_west,,,RGI60-14.01531,,,,,
PK,RGI60-14.01532,,107328,36.7392,73.0219,14_south_asia_west,,,RGI60-14.01532,,,,,
PK,RGI60-14.01534,,107329,36.7763,74.0873,14_south_asia_west,,,RGI60-14.01534,,,,,
PK,RGI60-14.01535,,107330,36.781,74.1006,14_south_asia_west,,,RGI60-14.01535,,,,,
PK,RGI60-14.01536,,107331,36.7624,74.0933,14_south_asia_west,,,RGI60-14.01536,,,,,
PK,RGI60-14.01537,,107332,36.7694,74.0932,14_south_asia_west,,,RGI60-14.01537,,,,,
PK,RGI60-14.01542,,107333,36.7509,73.1503,14_south_asia_west,,,RGI60-14.01542,,,,,
PK,RGI60-14.01543,,107334,36.7419,73.159,14_south_asia_west,,,RGI60-14.01543,,,,,
PK,RGI60-14.01544,,107335,36.7378,73.1553,14_south_asia_west,,,RGI60-14.01544,,,,,
PK,RGI60-14.01545,,107336,36.733,73.161,14_south_asia_west,,,RGI60-14.01545,,,,,
PK,RGI60-14.01546,,107337,36.7242,73.1667,14_south_asia_west,,,RGI60-14.01546,,,,,
PK,RGI60-14.01547,,107338,36.7184,73.1207,14_south_asia_west,,,RGI60-14.01547,,,,,
PK,RGI60-14.01554,,107343,36.7629,75.2703,14_south_asia_west,,,RGI60-14.01554,,,,,
PK,RGI60-14.01555,,107344,36.755,75.3939,14_south_asia_west,,,RGI60-14.01555,,,,,
PK,RGI60-14.01556,,107345,36.7567,74.3647,14_south_asia_west,,,RGI60-14.01556,,,,,
PK,RGI60-14.01557,,107346,36.7522,74.3609,14_south_asia_west,,,RGI60-14.01557,,,,,
PK,RGI60-14.01558,,107347,36.7461,74.377,14_south_asia_west,,,RGI60-14.01558,,,,,
PK,RGI60-14.01563,,107349,36.7643,75.1251,14_south_asia_west,,,RGI60-14.01563,,,,,
PK,RGI60-14.01566,,107351,36.7829,74.2323,14_south_asia_west,,,RGI60-14.01566,,,,,
PK,RGI60-14.01567,,107352,36.7765,74.23,14_south_asia_west,,,RGI60-14.01567,,,,,
PK,RGI60-14.01568,,107353,36.7728,74.25,14_south_asia_west,,,RGI60-14.01568,,,,,
PK,RGI60-14.01569,,107354,36.757,75.3518,14_south_asia_west,,,RGI60-14.01569,,,,,
PK,RGI60-14.01570,,107355,36.764,74.513,14_south_asia_west,,,RGI60-14.01570,,,,,
PK,RGI60-14.01571,,107356,36.7577,74.518,14_south_asia_west,,,RGI60-14.01571,,,,,
PK,RGI60-14.01572,,107357,36.7622,74.5246,14_south_asia_west,,,RGI60-14.01572,,,,,
PK,RGI60-14.01573,,107358,36.7654,74.499,14_south_asia_west,,,RGI60-14.01573,,,,,
PK,RGI60-14.01574,,107359,36.7562,74.4872,14_south_asia_west,,,RGI60-14.01574,,,,,
PK,RGI60-14.01575,,107360,36.7658,74.5086,14_south_asia_west,,,RGI60-14.01575,,,,,
PK,RGI60-14.01576,,107361,36.7514,74.464,14_south_asia_west,,,RGI60-14.01576,,,,,
PK,RGI60-14.01578,,107363,36.7524,74.2644,14_south_asia_west,,,RGI60-14.01578,,,,,
PK,RGI60-14.01581,,107365,36.7778,74.2229,14_south_asia_west,,,RGI60-14.01581,,,,,
PK,RGI60-14.01582,,107366,36.7752,74.1903,14_south_asia_west,,,RGI60-14.01582,,,,,
PK,RGI60-14.01586,,107369,36.7365,73.9729,14_south_asia_west,,,RGI60-14.01586,,,,,
PK,RGI60-14.01588,,107370,36.7416,75.1411,14_south_asia_west,,,RGI60-14.01588,,,,,
PK,RGI60-14.01590,,107371,36.7258,73.0512,14_south_asia_west,,,RGI60-14.01590,,,,,
PK,RGI60-14.01595,,107375,36.7407,75.6125,14_south_asia_west,,,RGI60-14.01595,,,,,
PK,RGI60-14.01596,,107376,36.7451,74.3836,14_south_asia_west,,,RGI60-14.01596,,,,,
PK,RGI60-14.01598,,107377,36.7124,73.0429,14_south_asia_west,,,RGI60-14.01598,,,,,
PK,RGI60-14.01602,,107378,36.7571,75.3462,14_south_asia_west,,,RGI60-14.01602,,,,,
PK,RGI60-14.01603,,107379,36.7388,75.3393,14_south_asia_west,,,RGI60-14.01603,,,,,
PK,RGI60-14.01604,,107380,36.7497,75.3288,14_south_asia_west,,,RGI60-14.01604,,,,,
PK,RGI60-14.01605,,107381,36.7475,75.3292,14_south_asia_west,,,RGI60-14.01605,,,,,
PK,RGI60-14.01607,,107382,36.7417,75.6388,14_south_asia_west,,,RGI60-14.01607,,,,,
PK,RGI60-14.01610,,107385,36.7386,74.4824,14_south_asia_west,,,RGI60-14.01610,,,,,
PK,RGI60-14.01613,,107388,36.7391,74.4727,14_south_asia_west,,,RGI60-14.01613,,,,,
PK,RGI60-14.01614,,107389,36.7386,74.9926,14_south_asia_west,,,RGI60-14.01614,,,,,
PK,RGI60-14.01616,,107390,36.7289,73.449,14_south_asia_west,,,RGI60-14.01616,,,,,
PK,RGI60-14.01617,,107391,36.7363,74.3316,14_south_asia_west,,,RGI60-14.01617,,,,,
PK,RGI60-14.01619,,107392,36.7643,73.2822,14_south_asia_west,,,RGI60-14.01619,,,,,
PK,RGI60-14.01620,,107393,36.7327,74.0567,14_south_asia_west,,,RGI60-14.01620,,,,,
PK,RGI60-14.01621,,107394,36.73,74.0695,14_south_asia_west,,,RGI60-14.01621,,,,,
PK,RGI60-14.01622,,107395,36.7529,74.2439,14_south_asia_west,,,RGI60-14.01622,,,,,
PK,RGI60-14.01624,,107396,36.7519,74.2401,14_south_asia_west,,,RGI60-14.01624,,,,,
PK,RGI60-14.01625,,107397,36.7337,74.5246,14_south_asia_west,,,RGI60-14.01625,,,,,
PK,RGI60-14.01626,,107398,36.7334,74.4381,14_south_asia_west,,,RGI60-14.01626,,,,,
PK,RGI60-14.01630,,107399,36.729,74.5982,14_south_asia_west,,,RGI60-14.01630,,,,,
PK,RGI60-14.01631,,107400,36.7212,74.5973,14_south_asia_west,,,RGI60-14.01631,,,,,
PK,RGI60-14.01632,,107401,36.7207,74.5277,14_south_asia_west,,,RGI60-14.01632,,,,,
PK,RGI60-14.01633,,107402,36.7262,74.5216,14_south_asia_west,,,RGI60-14.01633,,,,,
PK,RGI60-14.01634,,107403,36.7327,74.9459,14_south_asia_west,,,RGI60-14.01634,,,,,
PK,RGI60-14.01639,,107405,36.735,75.1773,14_south_asia_west,,,RGI60-14.01639,,,,,
PK,RGI60-14.01641,,107407,36.7303,74.5141,14_south_asia_west,,,RGI60-14.01641,,,,,
PK,RGI60-14.01642,,107408,36.73,74.5201,14_south_asia_west,,,RGI60-14.01642,,,,,
PK,RGI60-14.01643,,107409,36.725,74.5936,14_south_asia_west,,,RGI60-14.01643,,,,,
PK,RGI60-14.01644,,107410,36.7255,75.0042,14_south_asia_west,,,RGI60-14.01644,,,,,
PK,RGI60-14.01645,,107411,36.7175,75.6497,14_south_asia_west,,,RGI60-14.01645,,,,,
PK,RGI60-14.01647,,107412,36.723,74.5916,14_south_asia_west,,,RGI60-14.01647,,,,,
PK,RGI60-14.01651,,107413,36.762,73.5109,14_south_asia_west,,,RGI60-14.01651,,,,,
PK,RGI60-14.01654,,107414,36.7579,73.5706,14_south_asia_west,,,RGI60-14.01654,,,,,
PK,RGI60-14.01657,,107415,36.7503,73.5438,14_south_asia_west,,,RGI60-14.01657,,,,,
PK,RGI60-14.01658,,107416,36.7496,73.5156,14_south_asia_west,,,RGI60-14.01658,,,,,
PK,RGI60-14.01661,,107417,36.7426,75.3903,14_south_asia_west,,,RGI60-14.01661,,,,,
PK,RGI60-14.01663,,107418,36.7215,75.3575,14_south_asia_west,,,RGI60-14.01663,,,,,
PK,RGI60-14.01664,,107419,36.6884,75.3564,14_south_asia_west,,,RGI60-14.01664,,,,,
PK,RGI60-14.01665,,107420,36.6857,75.3504,14_south_asia_west,,,RGI60-14.01665,,,,,
PK,RGI60-14.01666,,107421,36.7273,75.6412,14_south_asia_west,,,RGI60-14.01666,,,,,
PK,RGI60-14.01667,,107422,36.7187,75.2197,14_south_asia_west,,,RGI60-14.01667,,,,,
PK,RGI60-14.01671,,107425,36.7321,74.242,14_south_asia_west,,,RGI60-14.01671,,,,,
PK,RGI60-14.01672,,107426,36.7284,74.2396,14_south_asia_west,,,RGI60-14.01672,,,,,
PK,RGI60-14.01673,,107427,36.7265,74.3487,14_south_asia_west,,,RGI60-14.01673,,,,,
PK,RGI60-14.01674,,107428,36.7261,74.343,14_south_asia_west,,,RGI60-14.01674,,,,,
PK,RGI60-14.01675,,107429,36.7167,74.3359,14_south_asia_west,,,RGI60-14.01675,,,,,
PK,RGI60-14.01676,,107430,36.7175,74.2528,14_south_asia_west,,,RGI60-14.01676,,,,,
PK,RGI60-14.01677,,107431,36.7102,74.3517,14_south_asia_west,,,RGI60-14.01677,,,,,
PK,RGI60-14.01678,,107432,36.708,74.2085,14_south_asia_west,,,RGI60-14.01678,,,,,
PK,RGI60-14.01679,,107433,36.6966,74.3258,14_south_asia_west,,,RGI60-14.01679,,,,,
PK,RGI60-14.01680,,107434,36.6957,74.3289,14_south_asia_west,,,RGI60-14.01680,,,,,
PK,RGI60-14.01681,,107435,36.6823,74.2883,14_south_asia_west,,,RGI60-14.01681,,,,,
PK,RGI60-14.01688,,107436,36.6696,74.2981,14_south_asia_west,,,RGI60-14.01688,,,,,
PK,RGI60-14.01690,,107437,36.7349,74.4796,14_south_asia_west,,,RGI60-14.01690,,,,,
PK,RGI60-14.01691,,107438,36.7312,74.4468,14_south_asia_west,,,RGI60-14.01691,,,,,
PK,RGI60-14.01695,,107439,36.7232,73.4488,14_south_asia_west,,,RGI60-14.01695,,,,,
PK,RGI60-14.01696,,107440,36.7212,73.4832,14_south_asia_west,,,RGI60-14.01696,,,,,
PK,RGI60-14.01697,,107441,36.7083,73.458,14_south_asia_west,,,RGI60-14.01697,,,,,
PK,RGI60-14.01698,,107442,36.7156,73.9764,14_south_asia_west,,,RGI60-14.01698,,,,,
PK,RGI60-14.01699,,107443,36.7235,74.0514,14_south_asia_west,,,RGI60-14.01699,,,,,
PK,RGI60-14.01700,,107444,36.7197,74.048,14_south_asia_west,,,RGI60-14.01700,,,,,
PK,RGI60-14.01703,,107445,36.7367,73.3557,14_south_asia_west,,,RGI60-14.01703,,,,,
PK,RGI60-14.01704,,107446,36.7331,73.3919,14_south_asia_west,,,RGI60-14.01704,,,,,
PK,RGI60-14.01706,,107447,36.7187,75.0592,14_south_asia_west,,,RGI60-14.01706,,,,,
PK,RGI60-14.01707,,107448,36.7685,75.4215,14_south_asia_west,,,RGI60-14.01707,,,,,
PK,RGI60-14.01708,,107449,36.7628,75.4218,14_south_asia_west,,,RGI60-14.01708,,,,,
PK,RGI60-14.01712,,107450,36.7386,75.4431,14_south_asia_west,,,RGI60-14.01712,,,,,
PK,RGI60-14.01714,,107451,36.7209,73.9466,14_south_asia_west,,,RGI60-14.01714,,,,,
PK,RGI60-14.01715,,107452,36.7206,74.3978,14_south_asia_west,,,RGI60-14.01715,,,,,
PK,RGI60-14.01716,,107453,36.7185,74.4007,14_south_asia_west,,,RGI60-14.01716,,,,,
PK,RGI60-14.01717,,107454,36.7157,75.3021,14_south_asia_west,,,RGI60-14.01717,,,,,
PK,RGI60-14.01718,,107455,36.7196,74.387,14_south_asia_west,,,RGI60-14.01718,,,,,
PK,RGI60-14.01719,,107456,36.7153,74.3891,14_south_asia_west,,,RGI60-14.01719,,,,,
PK,RGI60-14.01720,,107457,36.7116,75.025,14_south_asia_west,,,RGI60-14.01720,,,,,
PK,RGI60-14.01721,,107458,36.7166,75.0212,14_south_asia_west,,,RGI60-14.01721,,,,,
PK,RGI60-14.01723,,107459,36.7097,73.4758,14_south_asia_west,,,RGI60-14.01723,,,,,
PK,RGI60-14.01724,,107460,36.7048,73.4766,14_south_asia_west,,,RGI60-14.01724,,,,,
PK,RGI60-14.01727,,107461,36.7178,75.382,14_south_asia_west,,,RGI60-14.01727,,,,,
PK,RGI60-14.01729,,107462,36.7357,74.4843,14_south_asia_west,,,RGI60-14.01729,,,,,
PK,RGI60-14.01731,,107463,36.725,74.4842,14_south_asia_west,,,RGI60-14.01731,,,,,
PK,RGI60-14.01732,,107464,36.7162,75.3726,14_south_asia_west,,,RGI60-14.01732,,,,,
PK,RGI60-14.01734,,107465,36.7334,73.9258,14_south_asia_west,,,RGI60-14.01734,,,,,
PK,RGI60-14.01735,,107466,36.7303,73.9238,14_south_asia_west,,,RGI60-14.01735,,,,,
PK,RGI60-14.01736,,107467,36.7242,73.9408,14_south_asia_west,,,RGI60-14.01736,,,,,
PK,RGI60-14.01738,,107468,36.7171,73.9441,14_south_asia_west,,,RGI60-14.01738,,,,,
PK,RGI60-14.01739,,107469,36.7117,73.3542,14_south_asia_west,,,RGI60-14.01739,,,,,
PK,RGI60-14.01740,,107470,36.7067,73.3555,14_south_asia_west,,,RGI60-14.01740,,,,,
PK,RGI60-14.01743,,107472,36.7157,74.5406,14_south_asia_west,,,RGI60-14.01743,,,,,
PK,RGI60-14.01744,,107473,36.7107,74.5992,14_south_asia_west,,,RGI60-14.01744,,,,,
PK,RGI60-14.01745,,107474,36.7119,74.917,14_south_asia_west,,,RGI60-14.01745,,,,,
PK,RGI60-14.01746,,107475,36.7098,73.3745,14_south_asia_west,,,RGI60-14.01746,,,,,
PK,RGI60-14.01747,,107476,36.7121,73.3619,14_south_asia_west,,,RGI60-14.01747,,,,,
PK,RGI60-14.01748,,107477,36.7004,73.3661,14_south_asia_west,,,RGI60-14.01748,,,,,
PK,RGI60-14.01749,,107478,36.6986,73.3679,14_south_asia_west,,,RGI60-14.01749,,,,,
PK,RGI60-14.01750,,107479,36.7193,75.0197,14_south_asia_west,,,RGI60-14.01750,,,,,
PK,RGI60-14.01751,,107480,36.7207,75.0102,14_south_asia_west,,,RGI60-14.01751,,,,,
PK,RGI60-14.01753,,107481,36.7308,75.2838,14_south_asia_west,,,RGI60-14.01753,,,,,
PK,RGI60-14.01754,,107482,36.7264,75.2494,14_south_asia_west,,,RGI60-14.01754,,,,,
PK,RGI60-14.01755,,107483,36.7028,73.3597,14_south_asia_west,,,RGI60-14.01755,,,,,
PK,RGI60-14.01756,,107484,36.7162,75.0346,14_south_asia_west,,,RGI60-14.01756,,,,,
PK,RGI60-14.01758,,107485,36.7334,75.5941,14_south_asia_west,,,RGI60-14.01758,,,,,
PK,RGI60-14.01760,,107487,36.6989,73.4631,14_south_asia_west,,,RGI60-14.01760,,,,,
PK,RGI60-14.01761,,107488,36.7124,74.2377,14_south_asia_west,,,RGI60-14.01761,,,,,
PK,RGI60-14.01762,,107489,36.7108,74.2499,14_south_asia_west,,,RGI60-14.01762,,,,,
PK,RGI60-14.01763,,107490,36.7082,74.2414,14_south_asia_west,,,RGI60-14.01763,,,,,
PK,RGI60-14.01765,,107491,36.716,73.5194,14_south_asia_west,,,RGI60-14.01765,,,,,
PK,RGI60-14.01766,,107492,36.709,73.519,14_south_asia_west,,,RGI60-14.01766,,,,,
PK,RGI60-14.01768,,107493,36.7102,73.5207,14_south_asia_west,,,RGI60-14.01768,,,,,
PK,RGI60-14.01769,,107494,36.7124,74.9249,14_south_asia_west,,,RGI60-14.01769,,,,,
PK,RGI60-14.01770,,107495,36.6974,73.2253,14_south_asia_west,,,RGI60-14.01770,,,,,
PK,RGI60-14.01772,,107496,36.7401,75.635,14_south_asia_west,,,RGI60-14.01772,,,,,
PK,RGI60-14.01773,,107497,36.7322,75.6163,14_south_asia_west,,,RGI60-14.01773,,,,,
PK,RGI60-14.01774,,107498,36.7277,75.6166,14_south_asia_west,,,RGI60-14.01774,,,,,
PK,RGI60-14.01775,,107499,36.7271,75.6306,14_south_asia_west,,,RGI60-14.01775,,,,,
PK,RGI60-14.01777,,107500,36.7077,74.0532,14_south_asia_west,,,RGI60-14.01777,,,,,
PK,RGI60-14.01780,,107501,36.6981,74.6809,14_south_asia_west,,,RGI60-14.01780,,,,,
PK,RGI60-14.01781,,107502,36.6919,74.6861,14_south_asia_west,,,RGI60-14.01781,,,,,
PK,RGI60-14.01782,,107503,36.6934,74.679,14_south_asia_west,,,RGI60-14.01782,,,,,
PK,RGI60-14.01783,,107504,36.6899,74.6649,14_south_asia_west,,,RGI60-14.01783,,,,,
PK,RGI60-14.01784,,107505,36.7158,74.9385,14_south_asia_west,,,RGI60-14.01784,,,,,
PK,RGI60-14.01785,,107506,36.7082,74.9444,14_south_asia_west,,,RGI60-14.01785,,,,,
PK,RGI60-14.01786,,107507,36.7043,75.5978,14_south_asia_west,,,RGI60-14.01786,,,,,
PK,RGI60-14.01787,,107508,36.714,73.3324,14_south_asia_west,,,RGI60-14.01787,,,,,
PK,RGI60-14.01788,,107509,36.7045,73.339,14_south_asia_west,,,RGI60-14.01788,,,,,
PK,RGI60-14.01789,,107510,36.7114,73.3428,14_south_asia_west,,,RGI60-14.01789,,,,,
PK,RGI60-14.01790,,107511,36.7053,73.3292,14_south_asia_west,,,RGI60-14.01790,,,,,
PK,RGI60-14.01791,,107512,36.6956,73.3622,14_south_asia_west,,,RGI60-14.01791,,,,,
PK,RGI60-14.01792,,107513,36.6927,74.6108,14_south_asia_west,,,RGI60-14.01792,,,,,
PK,RGI60-14.01793,,107514,36.6852,74.6298,14_south_asia_west,,,RGI60-14.01793,,,,,
PK,RGI60-14.01796,,107515,36.6912,72.9708,14_south_asia_west,,,RGI60-14.01796,,,,,
PK,RGI60-14.01797,,107516,36.6869,72.9677,14_south_asia_west,,,RGI60-14.01797,,,,,
PK,RGI60-14.01799,,107517,36.7078,74.5424,14_south_asia_west,,,RGI60-14.01799,,,,,
PK,RGI60-14.01800,,107518,36.7126,75.0577,14_south_asia_west,,,RGI60-14.01800,,,,,
PK,RGI60-14.01805,,107522,36.7039,75.593,14_south_asia_west,,,RGI60-14.01805,,,,,
PK,RGI60-14.01806,,107523,36.7076,75.2488,14_south_asia_west,,,RGI60-14.01806,,,,,
PK,RGI60-14.01808,,107524,36.684,72.9806,14_south_asia_west,,,RGI60-14.01808,,,,,
PK,RGI60-14.01809,,107525,36.6882,73.0369,14_south_asia_west,,,RGI60-14.01809,,,,,
PK,RGI60-14.01811,,107526,36.679,72.9865,14_south_asia_west,,,RGI60-14.01811,,,,,
PK,RGI60-14.01812,,107527,36.7029,74.6047,14_south_asia_west,,,RGI60-14.01812,,,,,
PK,RGI60-14.01813,,107528,36.7061,74.6184,14_south_asia_west,,,RGI60-14.01813,,,,,
PK,RGI60-14.01816,,107529,36.7085,75.2941,14_south_asia_west,,,RGI60-14.01816,,,,,
PK,RGI60-14.01817,,107530,36.7029,75.2874,14_south_asia_west,,,RGI60-14.01817,,,,,
PK,RGI60-14.01818,,107531,36.7013,75.2902,14_south_asia_west,,,RGI60-14.01818,,,,,
PK,RGI60-14.01819,,107532,36.697,75.3003,14_south_asia_west,,,RGI60-14.01819,,,,,
PK,RGI60-14.01820,,107533,36.7008,73.3044,14_south_asia_west,,,RGI60-14.01820,,,,,
PK,RGI60-14.01821,,107534,36.6928,73.3052,14_south_asia_west,,,RGI60-14.01821,,,,,
PK,RGI60-14.01822,,107535,36.6962,73.3106,14_south_asia_west,,,RGI60-14.01822,,,,,
PK,RGI60-14.01824,,107536,36.7838,73.8443,14_south_asia_west,,,RGI60-14.01824,,,,,
PK,RGI60-14.01826,,107537,36.7776,73.8572,14_south_asia_west,,,RGI60-14.01826,,,,,
PK,RGI60-14.01827,,107538,36.7612,73.7471,14_south_asia_west,,,RGI60-14.01827,,,,,
PK,RGI60-14.01828,,107539,36.7575,73.7837,14_south_asia_west,,,RGI60-14.01828,,,,,
PK,RGI60-14.01829,,107540,36.7525,73.6091,14_south_asia_west,,,RGI60-14.01829,,,,,
PK,RGI60-14.01833,,107541,36.7336,73.8763,14_south_asia_west,,,RGI60-14.01833,,,,,
PK,RGI60-14.01836,,107542,36.6957,75.6952,14_south_asia_west,,,RGI60-14.01836,,,,,
PK,RGI60-14.01837,,107543,36.69,75.7008,14_south_asia_west,,,RGI60-14.01837,,,,,
PK,RGI60-14.01838,,107544,36.6889,75.6835,14_south_asia_west,,,RGI60-14.01838,,,,,
PK,RGI60-14.01839,,107545,36.6838,75.6933,14_south_asia_west,,,RGI60-14.01839,,,,,
PK,RGI60-14.01842,,107546,36.7127,75.0394,14_south_asia_west,,,RGI60-14.01842,,,,,
PK,RGI60-14.01846,,107548,36.7093,75.5087,14_south_asia_west,,,RGI60-14.01846,,,,,
PK,RGI60-14.01848,,107549,36.7088,73.1522,14_south_asia_west,,,RGI60-14.01848,,,,,
PK,RGI60-14.01850,,107550,36.6903,75.1032,14_south_asia_west,,,RGI60-14.01850,,,,,
PK,RGI60-14.01854,,107551,36.7427,73.1094,14_south_asia_west,,,RGI60-14.01854,,,,,
PK,RGI60-14.01855,,107552,36.7377,73.1026,14_south_asia_west,,,RGI60-14.01855,,,,,
PK,RGI60-14.01856,,107553,36.7253,73.1027,14_south_asia_west,,,RGI60-14.01856,,,,,
PK,RGI60-14.01857,,107554,36.7214,73.1056,14_south_asia_west,,,RGI60-14.01857,,,,,
PK,RGI60-14.01858,,107555,36.722,73.0992,14_south_asia_west,,,RGI60-14.01858,,,,,
PK,RGI60-14.01859,,107556,36.7192,74.0773,14_south_asia_west,,,RGI60-14.01859,,,,,
PK,RGI60-14.01860,,107557,36.7184,74.0601,14_south_asia_west,,,RGI60-14.01860,,,,,
PK,RGI60-14.01862,,107558,36.7047,73.5691,14_south_asia_west,,,RGI60-14.01862,,,,,
PK,RGI60-14.01865,,107559,36.6864,73.2975,14_south_asia_west,,,RGI60-14.01865,,,,,
PK,RGI60-14.01870,,107561,36.7106,75.5518,14_south_asia_west,,,RGI60-14.01870,,,,,
PK,RGI60-14.01871,,107562,36.6932,75.5489,14_south_asia_west,,,RGI60-14.01871,,,,,
PK,RGI60-14.01872,,107563,36.6853,73.2431,14_south_asia_west,,,RGI60-14.01872,,,,,
PK,RGI60-14.01873,,107564,36.6793,73.2421,14_south_asia_west,,,RGI60-14.01873,,,,,
PK,RGI60-14.01874,,107565,36.6965,74.9619,14_south_asia_west,,,RGI60-14.01874,,,,,
PK,RGI60-14.01875,,107566,36.6719,72.9836,14_south_asia_west,,,RGI60-14.01875,,,,,
PK,RGI60-14.01877,,107567,36.6992,74.5393,14_south_asia_west,,,RGI60-14.01877,,,,,
PK,RGI60-14.01878,,107568,36.6973,74.5584,14_south_asia_west,,,RGI60-14.01878,,,,,
PK,RGI60-14.01879,,107569,36.695,74.5488,14_south_asia_west,,,RGI60-14.01879,,,,,
PK,RGI60-14.01880,,107570,36.687,74.5711,14_south_asia_west,,,RGI60-14.01880,,,,,
PK,RGI60-14.01882,,107571,36.6868,73.5798,14_south_asia_west,,,RGI60-14.01882,,,,,
PK,RGI60-14.01883,,107572,36.6945,73.5772,14_south_asia_west,,,RGI60-14.01883,,,,,
PK,RGI60-14.01886,,107573,36.6864,75.4634,14_south_asia_west,,,RGI60-14.01886,,,,,
PK,RGI60-14.01887,,107574,36.7026,73.2769,14_south_asia_west,,,RGI60-14.01887,,,,,
PK,RGI60-14.01888,,107575,36.7148,74.5272,14_south_asia_west,,,RGI60-14.01888,,,,,
PK,RGI60-14.01890,,107576,36.7119,74.5134,14_south_asia_west,,,RGI60-14.01890,,,,,
PK,RGI60-14.01891,,107577,36.7128,74.5033,14_south_asia_west,,,RGI60-14.01891,,,,,
PK,RGI60-14.01892,,107578,36.7055,74.5361,14_south_asia_west,,,RGI60-14.01892,,,,,
PK,RGI60-14.01894,,107579,36.7207,73.9142,14_south_asia_west,,,RGI60-14.01894,,,,,
PK,RGI60-14.01897,,107580,36.7136,73.8868,14_south_asia_west,,,RGI60-14.01897,,,,,
PK,RGI60-14.01898,,107581,36.7035,73.884,14_south_asia_west,,,RGI60-14.01898,,,,,
PK,RGI60-14.01899,,107582,36.6772,73.9309,14_south_asia_west,,,RGI60-14.01899,,,,,
PK,RGI60-14.01900,,107583,36.6915,74.7488,14_south_asia_west,,,RGI60-14.01900,,,,,
PK,RGI60-14.01901,,107584,36.6738,75.3467,14_south_asia_west,,,RGI60-14.01901,,,,,
PK,RGI60-14.01906,,107586,36.6877,74.6087,14_south_asia_west,,,RGI60-14.01906,,,,,
PK,RGI60-14.01907,,107587,36.6894,74.7386,14_south_asia_west,,,RGI60-14.01907,,,,,
PK,RGI60-14.01909,,107588,36.682,75.6223,14_south_asia_west,,,RGI60-14.01909,,,,,
PK,RGI60-14.01912,,107589,36.7118,74.0843,14_south_asia_west,,,RGI60-14.01912,,,,,
PK,RGI60-14.01913,,107590,36.7107,74.0805,14_south_asia_west,,,RGI60-14.01913,,,,,
PK,RGI60-14.01914,,107591,36.7108,74.1165,14_south_asia_west,,,RGI60-14.01914,,,,,
PK,RGI60-14.01915,,107592,36.7063,74.111,14_south_asia_west,,,RGI60-14.01915,,,,,
PK,RGI60-14.01916,,107593,36.684,74.9837,14_south_asia_west,,,RGI60-14.01916,,,,,
PK,RGI60-14.01917,,107594,36.6907,75.5259,14_south_asia_west,,,RGI60-14.01917,,,,,
PK,RGI60-14.01918,,107595,36.6832,75.523,14_south_asia_west,,,RGI60-14.01918,,,,,
PK,RGI60-14.01919,,107596,36.6698,73.2414,14_south_asia_west,,,RGI60-14.01919,,,,,
PK,RGI60-14.01920,,107597,36.6653,73.2443,14_south_asia_west,,,RGI60-14.01920,,,,,
PK,RGI60-14.01921,,107598,36.6609,73.2436,14_south_asia_west,,,RGI60-14.01921,,,,,
PK,RGI60-14.01923,,107599,36.6536,74.0005,14_south_asia_west,,,RGI60-14.01923,,,,,
PK,RGI60-14.01924,,107600,36.6844,75.5287,14_south_asia_west,,,RGI60-14.01924,,,,,
PK,RGI60-14.01926,,107601,36.6765,73.5861,14_south_asia_west,,,RGI60-14.01926,,,,,
PK,RGI60-14.01927,,107602,36.68,75.6748,14_south_asia_west,,,RGI60-14.01927,,,,,
PK,RGI60-14.01928,,107603,36.6843,75.6833,14_south_asia_west,,,RGI60-14.01928,,,,,
PK,RGI60-14.01931,,107606,36.6706,73.2362,14_south_asia_west,,,RGI60-14.01931,,,,,
PK,RGI60-14.01932,,107607,36.6691,73.2393,14_south_asia_west,,,RGI60-14.01932,,,,,
PK,RGI60-14.01933,,107608,36.6663,73.236,14_south_asia_west,,,RGI60-14.01933,,,,,
PK,RGI60-14.01938,,107609,36.6789,73.5937,14_south_asia_west,,,RGI60-14.01938,,,,,
PK,RGI60-14.01944,,107610,36.6796,74.56,14_south_asia_west,,,RGI60-14.01944,,,,,
PK,RGI60-14.01945,,107611,36.6755,74.557,14_south_asia_west,,,RGI60-14.01945,,,,,
PK,RGI60-14.01946,,107612,36.6736,74.5536,14_south_asia_west,,,RGI60-14.01946,,,,,
PK,RGI60-14.01949,,107613,36.6843,75.1128,14_south_asia_west,,,RGI60-14.01949,,,,,
PK,RGI60-14.01951,,107614,36.6753,74.932,14_south_asia_west,,,RGI60-14.01951,,,,,
PK,RGI60-14.01952,,107615,36.674,73.933,14_south_asia_west,,,RGI60-14.01952,,,,,
PK,RGI60-14.01955,,107618,36.6782,74.6305,14_south_asia_west,,,RGI60-14.01955,,,,,
PK,RGI60-14.01956,,107619,36.6659,73.1702,14_south_asia_west,,,RGI60-14.01956,,,,,
PK,RGI60-14.01961,,107622,36.7075,73.8309,14_south_asia_west,,,RGI60-14.01961,,,,,
PK,RGI60-14.01966,,107623,36.7049,74.4434,14_south_asia_west,,,RGI60-14.01966,,,,,
PK,RGI60-14.01967,,107624,36.7022,74.4373,14_south_asia_west,,,RGI60-14.01967,,,,,
PK,RGI60-14.01968,,107625,36.6608,73.0989,14_south_asia_west,,,RGI60-14.01968,,,,,
PK,RGI60-14.01969,,107626,36.6734,73.6427,14_south_asia_west,,,RGI60-14.01969,,,,,
PK,RGI60-14.01970,,107627,36.6687,73.6298,14_south_asia_west,,,RGI60-14.01970,,,,,
PK,RGI60-14.01971,,107628,36.6862,74.9677,14_south_asia_west,,,RGI60-14.01971,,,,,
PK,RGI60-14.01973,,107629,36.6803,74.9726,14_south_asia_west,,,RGI60-14.01973,,,,,
PK,RGI60-14.01975,,107630,36.665,73.885,14_south_asia_west,,,RGI60-14.01975,,,,,
PK,RGI60-14.01979,,107631,36.669,73.7097,14_south_asia_west,,,RGI60-14.01979,,,,,
PK,RGI60-14.01980,,107632,36.6649,73.71,14_south_asia_west,,,RGI60-14.01980,,,,,
PK,RGI60-14.01983,,107633,36.6626,74.9821,14_south_asia_west,,,RGI60-14.01983,,,,,
PK,RGI60-14.01984,,107634,36.659,74.9965,14_south_asia_west,,,RGI60-14.01984,,,,,
PK,RGI60-14.01986,,107635,36.6692,75.4215,14_south_asia_west,,,RGI60-14.01986,,,,,
PK,RGI60-14.01987,,107636,36.6746,75.1174,14_south_asia_west,,,RGI60-14.01987,,,,,
PK,RGI60-14.01988,,107637,36.6665,75.789,14_south_asia_west,,,RGI60-14.01988,,,,,
PK,RGI60-14.01989,,107638,36.6674,75.7837,14_south_asia_west,,,RGI60-14.01989,,,,,
PK,RGI60-14.01991,,107639,36.6613,73.7673,14_south_asia_west,,,RGI60-14.01991,,,,,
PK,RGI60-14.01992,,107640,36.6592,73.7731,14_south_asia_west,,,RGI60-14.01992,,,,,
PK,RGI60-14.01994,,107641,36.6698,74.5591,14_south_asia_west,,,RGI60-14.01994,,,,,
PK,RGI60-14.01995,,107642,36.6969,73.6335,14_south_asia_west,,,RGI60-14.01995,,,,,
PK,RGI60-14.01997,,107643,36.6846,73.6121,14_south_asia_west,,,RGI60-14.01997,,,,,
PK,RGI60-14.01999,,107644,36.7097,73.708,14_south_asia_west,,,RGI60-14.01999,,,,,
PK,RGI60-14.02000,,107645,36.7052,73.77,14_south_asia_west,,,RGI60-14.02000,,,,,
PK,RGI60-14.02001,,107646,36.704,73.7632,14_south_asia_west,,,RGI60-14.02001,,,,,
PK,RGI60-14.02003,,107647,36.6878,73.7196,14_south_asia_west,,,RGI60-14.02003,,,,,
PK,RGI60-14.02004,,107648,36.6546,73.1911,14_south_asia_west,,,RGI60-14.02004,,,,,
PK,RGI60-14.02005,,107649,36.6512,73.3455,14_south_asia_west,,,RGI60-14.02005,,,,,
PK,RGI60-14.02006,,107650,36.6547,73.3419,14_south_asia_west,,,RGI60-14.02006,,,,,
PK,RGI60-14.02007,,107651,36.6649,74.1594,14_south_asia_west,,,RGI60-14.02007,,,,,
PK,RGI60-14.02008,,107652,36.6677,75.4174,14_south_asia_west,,,RGI60-14.02008,,,,,
PK,RGI60-14.02011,,107653,36.7182,74.1495,14_south_asia_west,,,RGI60-14.02011,,,,,
PK,RGI60-14.02012,,107654,36.7155,74.1514,14_south_asia_west,,,RGI60-14.02012,,,,,
PK,RGI60-14.02015,,107655,36.7041,74.1223,14_south_asia_west,,,RGI60-14.02015,,,,,
PK,RGI60-14.02016,,107656,36.6985,74.122,14_south_asia_west,,,RGI60-14.02016,,,,,
PK,RGI60-14.02017,,107657,36.6962,74.1316,14_south_asia_west,,,RGI60-14.02017,,,,,
PK,RGI60-14.02018,,107658,36.6693,75.6141,14_south_asia_west,,,RGI60-14.02018,,,,,
PK,RGI60-14.02019,,107659,36.6649,74.1251,14_south_asia_west,,,RGI60-14.02019,,,,,
PK,RGI60-14.02020,,107660,36.6565,74.1208,14_south_asia_west,,,RGI60-14.02020,,,,,
PK,RGI60-14.02023,,107661,36.6617,73.9068,14_south_asia_west,,,RGI60-14.02023,,,,,
PK,RGI60-14.02025,,107662,36.6605,74.708,14_south_asia_west,,,RGI60-14.02025,,,,,
PK,RGI60-14.02026,,107663,36.6508,74.7095,14_south_asia_west,,,RGI60-14.02026,,,,,
PK,RGI60-14.02027,,107664,36.6492,74.7073,14_south_asia_west,,,RGI60-14.02027,,,,,
PK,RGI60-14.02028,,107665,36.6651,73.0087,14_south_asia_west,,,RGI60-14.02028,,,,,
PK,RGI60-14.02030,,107666,36.6633,73.0117,14_south_asia_west,,,RGI60-14.02030,,,,,
PK,RGI60-14.02031,,107667,36.6629,73.0206,14_south_asia_west,,,RGI60-14.02031,,,,,
PK,RGI60-14.02032,,107668,36.6528,72.9891,14_south_asia_west,,,RGI60-14.02032,,,,,
PK,RGI60-14.02033,,107669,36.6487,72.9922,14_south_asia_west,,,RGI60-14.02033,,,,,
PK,RGI60-14.02034,,107670,36.6473,72.9898,14_south_asia_west,,,RGI60-14.02034,,,,,
PK,RGI60-14.02035,,107671,36.6444,72.985,14_south_asia_west,,,RGI60-14.02035,,,,,
PK,RGI60-14.02037,,107672,36.6667,73.6526,14_south_asia_west,,,RGI60-14.02037,,,,,
PK,RGI60-14.02038,,107673,36.6577,73.6744,14_south_asia_west,,,RGI60-14.02038,,,,,
PK,RGI60-14.02039,,107674,36.6573,73.7771,14_south_asia_west,,,RGI60-14.02039,,,,,
PK,RGI60-14.02040,,107675,36.654,73.7765,14_south_asia_west,,,RGI60-14.02040,,,,,
PK,RGI60-14.02041,,107676,36.6626,75.7844,14_south_asia_west,,,RGI60-14.02041,,,,,
PK,RGI60-14.02042,,107677,36.6575,75.7879,14_south_asia_west,,,RGI60-14.02042,,,,,
PK,RGI60-14.02043,,107678,36.6731,73.0717,14_south_asia_west,,,RGI60-14.02043,,,,,
PK,RGI60-14.02044,,107679,36.6736,73.0856,14_south_asia_west,,,RGI60-14.02044,,,,,
PK,RGI60-14.02045,,107680,36.6692,73.0779,14_south_asia_west,,,RGI60-14.02045,,,,,
PK,RGI60-14.02046,,107681,36.6656,73.0723,14_south_asia_west,,,RGI60-14.02046,,,,,
PK,RGI60-14.02048,,107682,36.6556,73.0784,14_south_asia_west,,,RGI60-14.02048,,,,,
PK,RGI60-14.02049,,107683,36.6607,75.638,14_south_asia_west,,,RGI60-14.02049,,,,,
PK,RGI60-14.02050,,107684,36.6769,75.6844,14_south_asia_west,,,RGI60-14.02050,,,,,
PK,RGI60-14.02051,,107685,36.6702,75.6878,14_south_asia_west,,,RGI60-14.02051,,,,,
PK,RGI60-14.02052,,107686,36.6472,73.0757,14_south_asia_west,,,RGI60-14.02052,,,,,
PK,RGI60-14.02053,,107687,36.6617,74.5688,14_south_asia_west,,,RGI60-14.02053,,,,,
PK,RGI60-14.02054,,107688,36.6831,74.5762,14_south_asia_west,,,RGI60-14.02054,,,,,
PK,RGI60-14.02055,,107689,36.6774,74.5822,14_south_asia_west,,,RGI60-14.02055,,,,,
PK,RGI60-14.02056,,107690,36.6743,74.5747,14_south_asia_west,,,RGI60-14.02056,,,,,
PK,RGI60-14.02057,,107691,36.6629,74.5907,14_south_asia_west,,,RGI60-14.02057,,,,,
PK,RGI60-14.02058,,107692,36.6601,75.7306,14_south_asia_west,,,RGI60-14.02058,,,,,
PK,RGI60-14.02060,,107693,36.6645,74.0839,14_south_asia_west,,,RGI60-14.02060,,,,,
PK,RGI60-14.02061,,107694,36.659,74.1698,14_south_asia_west,,,RGI60-14.02061,,,,,
PK,RGI60-14.02063,,107695,36.6738,75.3943,14_south_asia_west,,,RGI60-14.02063,,,,,
PK,RGI60-14.02064,,107696,36.6681,75.3845,14_south_asia_west,,,RGI60-14.02064,,,,,
PK,RGI60-14.02066,,107697,36.6566,75.4927,14_south_asia_west,,,RGI60-14.02066,,,,,
PK,RGI60-14.02067,,107698,36.6528,75.4925,14_south_asia_west,,,RGI60-14.02067,,,,,
PK,RGI60-14.02068,,107699,36.6498,75.4922,14_south_asia_west,,,RGI60-14.02068,,,,,
PK,RGI60-14.02069,,107700,36.6477,75.4738,14_south_asia_west,,,RGI60-14.02069,,,,,
PK,RGI60-14.02073,,107701,36.6441,75.2617,14_south_asia_west,,,RGI60-14.02073,,,,,
PK,RGI60-14.02074,,107702,36.6396,75.2516,14_south_asia_west,,,RGI60-14.02074,,,,,
PK,RGI60-14.02075,,107703,36.6258,75.2759,14_south_asia_west,,,RGI60-14.02075,,,,,
PK,RGI60-14.02076,,107704,36.66,73.7551,14_south_asia_west,,,RGI60-14.02076,,,,,
PK,RGI60-14.02077,,107705,36.6514,73.7474,14_south_asia_west,,,RGI60-14.02077,,,,,
PK,RGI60-14.02078,,107706,36.661,73.3347,14_south_asia_west,,,RGI60-14.02078,,,,,
PK,RGI60-14.02080,,107707,36.6584,73.3369,14_south_asia_west,,,RGI60-14.02080,,,,,
PK,RGI60-14.02082,,107708,36.6455,73.3287,14_south_asia_west,,,RGI60-14.02082,,,,,
PK,RGI60-14.02083,,107709,36.6439,73.0235,14_south_asia_west,,,RGI60-14.02083,,,,,
PK,RGI60-14.02084,,107710,36.6562,73.944,14_south_asia_west,,,RGI60-14.02084,,,,,
PK,RGI60-14.02086,,107711,36.6444,73.1872,14_south_asia_west,,,RGI60-14.02086,,,,,
PK,RGI60-14.02087,,107712,36.6688,75.135,14_south_asia_west,,,RGI60-14.02087,,,,,
PK,RGI60-14.02088,,107713,36.6624,75.1176,14_south_asia_west,,,RGI60-14.02088,,,,,
PK,RGI60-14.02089,,107714,36.6446,73.2496,14_south_asia_west,,,RGI60-14.02089,,,,,
PK,RGI60-14.02090,,107715,36.6784,73.0682,14_south_asia_west,,,RGI60-14.02090,,,,,
PK,RGI60-14.02092,,107716,36.6752,73.0696,14_south_asia_west,,,RGI60-14.02092,,,,,
PK,RGI60-14.02094,,107717,36.6544,75.4734,14_south_asia_west,,,RGI60-14.02094,,,,,
PK,RGI60-14.02095,,107718,36.6517,73.764,14_south_asia_west,,,RGI60-14.02095,,,,,
PK,RGI60-14.02096,,107719,36.6547,73.7573,14_south_asia_west,,,RGI60-14.02096,,,,,
PK,RGI60-14.02097,,107720,36.6616,74.5944,14_south_asia_west,,,RGI60-14.02097,,,,,
PK,RGI60-14.02098,,107721,36.6536,74.6,14_south_asia_west,,,RGI60-14.02098,,,,,
PK,RGI60-14.02099,,107722,36.6572,75.0915,14_south_asia_west,,,RGI60-14.02099,,,,,
PK,RGI60-14.02100,,107723,36.6527,72.984,14_south_asia_west,,,RGI60-14.02100,,,,,
PK,RGI60-14.02101,,107724,36.641,72.9579,14_south_asia_west,,,RGI60-14.02101,,,,,
PK,RGI60-14.02104,,107725,36.6553,73.1791,14_south_asia_west,,,RGI60-14.02104,,,,,
PK,RGI60-14.02105,,107726,36.6524,73.1835,14_south_asia_west,,,RGI60-14.02105,,,,,
PK,RGI60-14.02106,,107727,36.6372,73.1756,14_south_asia_west,,,RGI60-14.02106,,,,,
PK,RGI60-14.02107,,107728,36.6471,73.1646,14_south_asia_west,,,RGI60-14.02107,,,,,
PK,RGI60-14.02108,,107729,36.6575,75.1453,14_south_asia_west,,,RGI60-14.02108,,,,,
PK,RGI60-14.02109,,107730,36.648,74.5605,14_south_asia_west,,,RGI60-14.02109,,,,,
PK,RGI60-14.02110,,107731,36.6403,74.556,14_south_asia_west,,,RGI60-14.02110,,,,,
PK,RGI60-14.02111,,107732,36.6424,73.7801,14_south_asia_west,,,RGI60-14.02111,,,,,
PK,RGI60-14.02112,,107733,36.6415,73.7758,14_south_asia_west,,,RGI60-14.02112,,,,,
PK,RGI60-14.02114,,107734,36.6403,75.7248,14_south_asia_west,,,RGI60-14.02114,,,,,
PK,RGI60-14.02115,,107735,36.6086,75.6901,14_south_asia_west,,,RGI60-14.02115,,,,,
PK,RGI60-14.02116,,107736,36.6382,73.1819,14_south_asia_west,,,RGI60-14.02116,,,,,
PK,RGI60-14.02121,,107737,36.6562,74.0972,14_south_asia_west,,,RGI60-14.02121,,,,,
PK,RGI60-14.02123,,107738,36.6551,73.766,14_south_asia_west,,,RGI60-14.02123,,,,,
PK,RGI60-14.02124,,107739,36.6493,73.7755,14_south_asia_west,,,RGI60-14.02124,,,,,
PK,RGI60-14.02126,,107740,36.6555,73.8877,14_south_asia_west,,,RGI60-14.02126,,,,,
PK,RGI60-14.02127,,107741,36.6471,74.007,14_south_asia_west,,,RGI60-14.02127,,,,,
PK,RGI60-14.02128,,107742,36.6559,74.7513,14_south_asia_west,,,RGI60-14.02128,,,,,
PK,RGI60-14.02129,,107743,36.651,74.7537,14_south_asia_west,,,RGI60-14.02129,,,,,
PK,RGI60-14.02130,,107744,36.6498,75.6329,14_south_asia_west,,,RGI60-14.02130,,,,,
PK,RGI60-14.02131,,107745,36.6483,75.4676,14_south_asia_west,,,RGI60-14.02131,,,,,
PK,RGI60-14.02133,,107746,36.6799,74.1944,14_south_asia_west,,,RGI60-14.02133,,,,,
PK,RGI60-14.02134,,107747,36.6791,74.1961,14_south_asia_west,,,RGI60-14.02134,,,,,
PK,RGI60-14.02135,,107748,36.676,74.2007,14_south_asia_west,,,RGI60-14.02135,,,,,
PK,RGI60-14.02139,,107749,36.648,74.9944,14_south_asia_west,,,RGI60-14.02139,,,,,
PK,RGI60-14.02140,,107750,36.6344,73.179,14_south_asia_west,,,RGI60-14.02140,,,,,
PK,RGI60-14.02142,,107751,36.643,74.0062,14_south_asia_west,,,RGI60-14.02142,,,,,
PK,RGI60-14.02143,,107752,36.6389,74.0084,14_south_asia_west,,,RGI60-14.02143,,,,,
PK,RGI60-14.02145,,107753,36.6499,74.7389,14_south_asia_west,,,RGI60-14.02145,,,,,
PK,RGI60-14.02146,,107754,36.6445,74.733,14_south_asia_west,,,RGI60-14.02146,,,,,
PK,RGI60-14.02147,,107755,36.6386,75.8118,14_south_asia_west,,,RGI60-14.02147,,,,,
PK,RGI60-14.02148,,107756,36.6471,74.6398,14_south_asia_west,,,RGI60-14.02148,,,,,
PK,RGI60-14.02149,,107757,36.7188,74.4735,14_south_asia_west,,,RGI60-14.02149,,,,,
PK,RGI60-14.02151,,107758,36.7072,74.4628,14_south_asia_west,,,RGI60-14.02151,,,,,
PK,RGI60-14.02156,,107759,36.6393,74.4623,14_south_asia_west,,,RGI60-14.02156,,,,,
PK,RGI60-14.02158,,107760,36.5825,74.4812,14_south_asia_west,,,RGI60-14.02158,,,,,
PK,RGI60-14.02161,,107761,36.5729,74.4852,14_south_asia_west,,,RGI60-14.02161,,,,,
PK,RGI60-14.02163,,107762,36.6277,73.0701,14_south_asia_west,,,RGI60-14.02163,,,,,
PK,RGI60-14.02164,,107763,36.6366,73.7811,14_south_asia_west,,,RGI60-14.02164,,,,,
PK,RGI60-14.02165,,107764,36.6361,73.7842,14_south_asia_west,,,RGI60-14.02165,,,,,
PK,RGI60-14.02166,,107765,36.629,73.7818,14_south_asia_west,,,RGI60-14.02166,,,,,
PK,RGI60-14.02167,,107766,36.6311,73.7787,14_south_asia_west,,,RGI60-14.02167,,,,,
PK,RGI60-14.02168,,107767,36.6467,74.6632,14_south_asia_west,,,RGI60-14.02168,,,,,
PK,RGI60-14.02169,,107768,36.6379,75.8088,14_south_asia_west,,,RGI60-14.02169,,,,,
PK,RGI60-14.02170,,107769,36.655,73.5972,14_south_asia_west,,,RGI60-14.02170,,,,,
PK,RGI60-14.02171,,107770,36.6361,73.598,14_south_asia_west,,,RGI60-14.02171,,,,,
PK,RGI60-14.02173,,107771,36.6354,73.5893,14_south_asia_west,,,RGI60-14.02173,,,,,
PK,RGI60-14.02174,,107772,36.6358,73.5928,14_south_asia_west,,,RGI60-14.02174,,,,,
PK,RGI60-14.02176,,107773,36.645,75.0839,14_south_asia_west,,,RGI60-14.02176,,,,,
PK,RGI60-14.02177,,107774,36.6408,75.089,14_south_asia_west,,,RGI60-14.02177,,,,,
PK,RGI60-14.02178,,107775,36.6311,73.3315,14_south_asia_west,,,RGI60-14.02178,,,,,
PK,RGI60-14.02179,,107776,36.626,73.3319,14_south_asia_west,,,RGI60-14.02179,,,,,
PK,RGI60-14.02181,,107777,36.6149,73.3893,14_south_asia_west,,,RGI60-14.02181,,,,,
PK,RGI60-14.02182,,107778,36.6022,73.3862,14_south_asia_west,,,RGI60-14.02182,,,,,
PK,RGI60-14.02184,,107779,36.6274,73.9127,14_south_asia_west,,,RGI60-14.02184,,,,,
PK,RGI60-14.02185,,107780,36.6439,75.5064,14_south_asia_west,,,RGI60-14.02185,,,,,
PK,RGI60-14.02189,,107781,36.6223,73.2383,14_south_asia_west,,,RGI60-14.02189,,,,,
PK,RGI60-14.02193,,107782,36.6449,74.2275,14_south_asia_west,,,RGI60-14.02193,,,,,
PK,RGI60-14.02196,,107783,36.5837,74.163,14_south_asia_west,,,RGI60-14.02196,,,,,
PK,RGI60-14.02197,,107784,36.642,74.6719,14_south_asia_west,,,RGI60-14.02197,,,,,
PK,RGI60-14.02198,,107785,36.6423,74.6798,14_south_asia_west,,,RGI60-14.02198,,,,,
PK,RGI60-14.02199,,107786,36.6396,74.6846,14_south_asia_west,,,RGI60-14.02199,,,,,
PK,RGI60-14.02200,,107787,36.6269,73.5858,14_south_asia_west,,,RGI60-14.02200,,,,,
PK,RGI60-14.02201,,107788,36.6256,73.6505,14_south_asia_west,,,RGI60-14.02201,,,,,
PK,RGI60-14.02202,,107789,36.6235,73.6461,14_south_asia_west,,,RGI60-14.02202,,,,,
PK,RGI60-14.02203,,107790,36.6227,75.8223,14_south_asia_west,,,RGI60-14.02203,,,,,
PK,RGI60-14.02204,,107791,36.6337,75.4668,14_south_asia_west,,,RGI60-14.02204,,,,,
PK,RGI60-14.02207,,107792,36.6613,75.6077,14_south_asia_west,,,RGI60-14.02207,,,,,
PK,RGI60-14.02208,,107793,36.6402,74.9984,14_south_asia_west,,,RGI60-14.02208,,,,,
PK,RGI60-14.02209,,107794,36.6366,74.9932,14_south_asia_west,,,RGI60-14.02209,,,,,
PK,RGI60-14.02210,,107795,36.6192,73.5912,14_south_asia_west,,,RGI60-14.02210,,,,,
PK,RGI60-14.02212,,107796,36.6317,75.4837,14_south_asia_west,,,RGI60-14.02212,,,,,
PK,RGI60-14.02213,,107797,36.6174,73.1515,14_south_asia_west,,,RGI60-14.02213,,,,,
PK,RGI60-14.02214,,107798,36.6039,73.14,14_south_asia_west,,,RGI60-14.02214,,,,,
PK,RGI60-14.02217,,107799,36.6262,73.7887,14_south_asia_west,,,RGI60-14.02217,,,,,
PK,RGI60-14.02219,,107800,36.6251,74.9987,14_south_asia_west,,,RGI60-14.02219,,,,,
PK,RGI60-14.02220,,107801,36.625,75.2817,14_south_asia_west,,,RGI60-14.02220,,,,,
PK,RGI60-14.02223,,107802,36.5969,73.0515,14_south_asia_west,,,RGI60-14.02223,,,,,
PK,RGI60-14.02225,,107803,36.5921,73.0526,14_south_asia_west,,,RGI60-14.02225,,,,,
PK,RGI60-14.02226,,107804,36.5893,73.0455,14_south_asia_west,,,RGI60-14.02226,,,,,
PK,RGI60-14.02227,,107805,36.5805,73.0502,14_south_asia_west,,,RGI60-14.02227,,,,,
PK,RGI60-14.02228,,107806,36.5727,73.0512,14_south_asia_west,,,RGI60-14.02228,,,,,
